[
    {
      "station_id": "EHAK",
      "latitude": 55.39917,
      "longitude": 3.81028,
      "elevation": 50.0,
      "station_name": "A12-CPP HELIPAD OIL PLATFORM",
      "station_network": "NL__ASOS",
      "timezone": "Europe/London"
    },
    {
      "station_id": "EKYT",
      "latitude": 57.09639,
      "longitude": 9.85056,
      "elevation": 3.0,
      "station_name": "Aalborg",
      "station_network": "DK__ASOS",
      "timezone": "Europe/Paris"
    },
    {
      "station_id": "EKAH",
      "latitude": 56.30833,
      "longitude": 10.62556,
      "elevation": 25.0,
      "station_name": "Aarhus",
      "station_network": "DK__ASOS",
      "timezone": "Europe/Paris"
    },
    {
      "station_id": "OIAA",
      "latitude": 30.36667,
      "longitude": 48.25,
      "elevation": 11.0,
      "station_name": "Abadan",
      "station_network": "IR__ASOS",
      "timezone": "Asia/Tehran"
    },
    {
      "station_id": "OISA",
      "latitude": 31.18333,
      "longitude": 52.66667,
      "elevation": 2004.0,
      "station_name": "ABADEH",
      "station_network": "IR__ASOS",
      "timezone": "Asia/Tehran"
    },
    {
      "station_id": "UNAA",
      "latitude": 53.74,
      "longitude": 91.385,
      "elevation": 245.0,
      "station_name": "Abakan",
      "station_network": "RU__ASOS",
      "timezone": "Australia/Perth"
    },
    {
      "station_id": "LFOI",
      "latitude": 50.13611,
      "longitude": 1.83889,
      "elevation": 77.0,
      "station_name": "Abbeville",
      "station_network": "FR__ASOS",
      "timezone": "Europe/Paris"
    },
    {
      "station_id": "IYA",
      "latitude": 29.9758,
      "longitude": -92.0842,
      "elevation": 5.0,
      "station_name": "Abbeville",
      "station_network": "LA_ASOS",
      "timezone": "America/Chicago"
    },
    {
      "station_id": "CYXX",
      "latitude": 49.02738,
      "longitude": -122.37706,
      "elevation": 58.0,
      "station_name": "ABBOTSFORD",
      "station_network": "CA_BC_ASOS",
      "timezone": "America/Los_Angeles"
    },
    {
      "station_id": "FTTC",
      "latitude": 13.847,
      "longitude": 20.84433,
      "elevation": 549.0,
      "station_name": "Abeche",
      "station_network": "TD__ASOS",
      "timezone": "Europe/Paris"
    },
    {
      "station_id": "CXAF",
      "latitude": 54.28333,
      "longitude": -112.96667,
      "elevation": 664.0,
      "station_name": "ABEE AGDM  ALTA",
      "station_network": "CA_AB_ASOS",
      "timezone": "America/Denver"
    },
    {
      "station_id": "EGPD",
      "latitude": 57.20494,
      "longitude": -2.20528,
      "elevation": 65.0,
      "station_name": "Aberdeen",
      "station_network": "GB__ASOS",
      "timezone": "Europe/London"
    },
    {
      "station_id": "M40",
      "latitude": 33.8738,
      "longitude": -88.4897,
      "elevation": 67.64834,
      "station_name": "Aberdeen",
      "station_network": "MS_ASOS",
      "timezone": "America/Chicago"
    },
    {
      "station_id": "ABR",
      "latitude": 45.45,
      "longitude": -98.42,
      "elevation": 394.99753,
      "station_name": "ABERDEEN",
      "station_network": "SD_ASOS",
      "timezone": "America/Chicago"
    },
    {
      "station_id": "OEAB",
      "latitude": 18.24037,
      "longitude": 42.65662,
      "elevation": 2084.0,
      "station_name": "Abha",
      "station_network": "SA__ASOS",
      "timezone": "Asia/Riyadh"
    },
    {
      "station_id": "DIAP",
      "latitude": 5.26139,
      "longitude": -3.92629,
      "elevation": 8.0,
      "station_name": "Abidjan",
      "station_network": "CI__ASOS",
      "timezone": "Europe/Lisbon"
    },
    {
      "station_id": "ABI",
      "latitude": 32.41063,
      "longitude": -99.68209,
      "elevation": 544.9975,
      "station_name": "Abilene",
      "station_network": "TX_ASOS",
      "timezone": "America/Chicago"
    },
    {
      "station_id": "VJI",
      "latitude": 36.6871,
      "longitude": -82.03333,
      "elevation": 631.0,
      "station_name": "Abingdon",
      "station_network": "VA_ASOS",
      "timezone": "America/New_York"
    },
    {
      "station_id": "OMAA",
      "latitude": 24.43297,
      "longitude": 54.65114,
      "elevation": 27.0,
      "station_name": "Abu Dhabi",
      "station_network": "AE__ASOS",
      "timezone": "Asia/Dubai"
    },
    {
      "station_id": "OMAD",
      "latitude": 24.42833,
      "longitude": 54.45808,
      "elevation": 3.0,
      "station_name": "Abu Dhabi",
      "station_network": "AE__ASOS",
      "timezone": "Asia/Dubai"
    },
    {
      "station_id": "DNAA",
      "latitude": 9.00679,
      "longitude": 7.26317,
      "elevation": 344.0,
      "station_name": "Abuja",
      "station_network": "NG__ASOS",
      "timezone": "Europe/Paris"
    },
    {
      "station_id": "OIBA",
      "latitude": 25.87574,
      "longitude": 55.03299,
      "elevation": 7.0,
      "station_name": "Abumusa I.",
      "station_network": "IR__ASOS",
      "timezone": "Asia/Dubai"
    },
    {
      "station_id": "HEBL",
      "latitude": 22.37583,
      "longitude": 31.61167,
      "elevation": 188.0,
      "station_name": "Abu Simbel",
      "station_network": "EG__ASOS",
      "timezone": "Europe/Mariehamn"
    },
    {
      "station_id": "MSAC",
      "latitude": 13.57639,
      "longitude": -89.83333,
      "elevation": 15.0,
      "station_name": "ACAJUTLA/SONSONATE",
      "station_network": "SV__ASOS",
      "timezone": "America/Chicago"
    },
    {
      "station_id": "MMAA",
      "latitude": 16.75706,
      "longitude": -99.75395,
      "elevation": 5.0,
      "station_name": "Acapulco",
      "station_network": "MX__ASOS",
      "timezone": "America/Chicago"
    },
    {
      "station_id": "DGAA",
      "latitude": 5.60519,
      "longitude": -0.16679,
      "elevation": 69.0,
      "station_name": "Accra",
      "station_network": "GH__ASOS",
      "timezone": "Europe/Lisbon"
    },
    {
      "station_id": "PADK",
      "latitude": 51.87796,
      "longitude": -176.64603,
      "elevation": 4.0,
      "station_name": "ADAK NAS/MITCHELL",
      "station_network": "AK_ASOS",
      "timezone": "Pacific/Honolulu"
    },
    {
      "station_id": "ADH",
      "latitude": 34.80426,
      "longitude": -96.6712,
      "elevation": 310.0,
      "station_name": "ADA_MUNICIPAL_AIRPORT",
      "station_network": "OK_ASOS",
      "timezone": "America/Chicago"
    },
    {
      "station_id": "LTAF",
      "latitude": 36.98333,
      "longitude": 35.3,
      "elevation": 20.0,
      "station_name": "Adana",
      "station_network": "TR__ASOS",
      "timezone": "Europe/Mariehamn"
    },
    {
      "station_id": "LTAG",
      "latitude": 37.0021,
      "longitude": 35.42589,
      "elevation": 66.0,
      "station_name": "Adana",
      "station_network": "TR__ASOS",
      "timezone": "Europe/Mariehamn"
    },
    {
      "station_id": "HAAB",
      "latitude": 8.9779,
      "longitude": 38.7993,
      "elevation": 2355.0,
      "station_name": "Addis Ababa",
      "station_network": "ET__ASOS",
      "timezone": "Asia/Riyadh"
    },
    {
      "station_id": "YPAD",
      "latitude": -34.9524,
      "longitude": 138.5204,
      "elevation": 4.0,
      "station_name": "Adelaide",
      "station_network": "AU__ASOS",
      "timezone": "Australia/Adelaide"
    },
    {
      "station_id": "OYAA",
      "latitude": 12.82954,
      "longitude": 45.02879,
      "elevation": 3.0,
      "station_name": "Aden",
      "station_network": "YE__ASOS",
      "timezone": "Asia/Riyadh"
    },
    {
      "station_id": "LTCP",
      "latitude": 37.75,
      "longitude": 38.28333,
      "elevation": 676.0,
      "station_name": "Adiyaman",
      "station_network": "TR__ASOS",
      "timezone": "Europe/Mariehamn"
    },
    {
      "station_id": "SCMK",
      "latitude": -43.895,
      "longitude": -73.73889,
      "elevation": 11.0,
      "station_name": "AD MELINKA",
      "station_network": "CL__ASOS",
      "timezone": "America/La_Paz"
    },
    {
      "station_id": "DAUA",
      "latitude": 27.88333,
      "longitude": -0.18333,
      "elevation": 263.0,
      "station_name": "Adrar",
      "station_network": "DZ__ASOS",
      "timezone": "Europe/Paris"
    },
    {
      "station_id": "ADG",
      "latitude": 41.86767,
      "longitude": -84.07731,
      "elevation": 241.0,
      "station_name": "ADRIAN",
      "station_network": "MI_ASOS",
      "timezone": "America/New_York"
    },
    {
      "station_id": "AFO",
      "latitude": 42.7112,
      "longitude": -110.9422,
      "elevation": 1882.1039,
      "station_name": "Afton",
      "station_network": "WY_ASOS",
      "timezone": "America/Denver"
    },
    {
      "station_id": "LTAH",
      "latitude": 38.75,
      "longitude": 30.5333,
      "elevation": 1212.4417,
      "station_name": "Afyon",
      "station_network": "TR__ASOS",
      "timezone": "Europe/Mariehamn"
    },
    {
      "station_id": "DRZA",
      "latitude": 16.96667,
      "longitude": 7.98333,
      "elevation": 502.0,
      "station_name": "Agadez",
      "station_network": "NE__ASOS",
      "timezone": "Europe/Paris"
    },
    {
      "station_id": "GMAD",
      "latitude": 30.32889,
      "longitude": -9.39944,
      "elevation": 74.0,
      "station_name": "Agadir",
      "station_network": "MA__ASOS",
      "timezone": "Europe/Lisbon"
    },
    {
      "station_id": "PGUM",
      "latitude": 13.48387,
      "longitude": 144.79717,
      "elevation": 90.5,
      "station_name": "Agana",
      "station_network": "GU_ASOS",
      "timezone": "Australia/Sydney"
    },
    {
      "station_id": "VEAT",
      "latitude": 23.88698,
      "longitude": 91.24045,
      "elevation": 16.0,
      "station_name": "Agartala",
      "station_network": "IN__ASOS",
      "timezone": "Asia/Kolkata"
    },
    {
      "station_id": "CWZA",
      "latitude": 49.24305,
      "longitude": -121.76008,
      "elevation": 15.0,
      "station_name": "AGASSIZ CS",
      "station_network": "CA_BC_ASOS",
      "timezone": "America/Los_Angeles"
    },
    {
      "station_id": "VOAT",
      "latitude": 10.8237,
      "longitude": 72.176,
      "elevation": -2.0,
      "station_name": "Agatti Island",
      "station_network": "IN__ASOS",
      "timezone": null
    },
    {
      "station_id": "LFBA",
      "latitude": 44.17222,
      "longitude": 0.59472,
      "elevation": 60.0,
      "station_name": "Agen",
      "station_network": "FR__ASOS",
      "timezone": "Europe/Paris"
    },
    {
      "station_id": "OIAG",
      "latitude": 30.76667,
      "longitude": 49.66667,
      "elevation": 29.0,
      "station_name": "Aghajari",
      "station_network": "IR__ASOS",
      "timezone": "Asia/Tehran"
    },
    {
      "station_id": "VIAG",
      "latitude": 27.15583,
      "longitude": 77.96089,
      "elevation": 169.0,
      "station_name": "Agra",
      "station_network": "IN__ASOS",
      "timezone": "Asia/Kolkata"
    },
    {
      "station_id": "LTCO",
      "latitude": 39.65454,
      "longitude": 43.02598,
      "elevation": 1665.0,
      "station_name": "Agri",
      "station_network": "TR__ASOS",
      "timezone": "Europe/Mariehamn"
    },
    {
      "station_id": "TJBQ",
      "latitude": 18.49486,
      "longitude": -67.12944,
      "elevation": 72.0,
      "station_name": "Aguadilla",
      "station_network": "PR_ASOS",
      "timezone": "America/La_Paz"
    },
    {
      "station_id": "MMAS",
      "latitude": 21.85333,
      "longitude": -102.29139,
      "elevation": 1863.0,
      "station_name": "Aguascalientes",
      "station_network": "MX__ASOS",
      "timezone": "America/Chicago"
    },
    {
      "station_id": "WAHS",
      "latitude": -6.97083,
      "longitude": 110.37389,
      "elevation": 3.0868776,
      "station_name": "Ahmad Yani",
      "station_network": "ID__ASOS",
      "timezone": "Asia/Jakarta"
    },
    {
      "station_id": "VAAH",
      "latitude": 23.07724,
      "longitude": 72.63465,
      "elevation": 55.0,
      "station_name": "Ahmedabad",
      "station_network": "IN__ASOS",
      "timezone": "Asia/Kolkata"
    },
    {
      "station_id": "ASJ",
      "latitude": 36.3,
      "longitude": -77.17,
      "elevation": 21.0,
      "station_name": "AHOSKIE_TRI_COU",
      "station_network": "NC_ASOS",
      "timezone": "America/New_York"
    },
    {
      "station_id": "OIAW",
      "latitude": 31.3186,
      "longitude": 48.67042,
      "elevation": 19.61939,
      "station_name": "Ahvaz",
      "station_network": "IR__ASOS",
      "timezone": "Asia/Tehran"
    },
    {
      "station_id": "LOXA",
      "latitude": 47.5325,
      "longitude": 14.13806,
      "elevation": 649.0,
      "station_name": "AIGEN/ENNSTAL (MIL)",
      "station_network": "AT__ASOS",
      "timezone": "Europe/Paris"
    },
    {
      "station_id": "AIK",
      "latitude": 33.64938,
      "longitude": -81.68504,
      "elevation": 160.9,
      "station_name": "Aiken",
      "station_network": "SC_ASOS",
      "timezone": "America/New_York"
    },
    {
      "station_id": "ANW",
      "latitude": 42.57923,
      "longitude": -99.99297,
      "elevation": 787.1129,
      "station_name": "AINSWORTH MUNICI",
      "station_network": "NE_ASOS",
      "timezone": "America/Chicago"
    },
    {
      "station_id": "AFF",
      "latitude": 38.96972,
      "longitude": -104.81283,
      "elevation": 2003.0,
      "station_name": "AIR FORCE ACADEMY",
      "station_network": "CO_ASOS",
      "timezone": "America/Denver"
    },
    {
      "station_id": "AIT",
      "latitude": 46.54842,
      "longitude": -93.6768,
      "elevation": 367.0,
      "station_name": "AITKIN NDB",
      "station_network": "MN_ASOS",
      "timezone": "America/Chicago"
    },
    {
      "station_id": "NCAI",
      "latitude": -18.8309,
      "longitude": -159.7642,
      "elevation": 8.177896,
      "station_name": "Aitutaki",
      "station_network": "WS__ASOS",
      "timezone": "Pacific/Honolulu"
    },
    {
      "station_id": "VELP",
      "latitude": 23.8406,
      "longitude": 92.6197,
      "elevation": 427.57922,
      "station_name": "Aizwal",
      "station_network": "IN__ASOS",
      "timezone": "Asia/Kolkata"
    },
    {
      "station_id": "LFKJ",
      "latitude": 41.93056,
      "longitude": 8.79278,
      "elevation": 9.0,
      "station_name": "Ajaccio",
      "station_network": "FR__ASOS",
      "timezone": "Europe/Paris"
    },
    {
      "station_id": "RJOE",
      "latitude": 34.53333,
      "longitude": 136.67222,
      "elevation": 9.0,
      "station_name": "Akeno",
      "station_network": "JP__ASOS",
      "timezone": "Asia/Tokyo"
    },
    {
      "station_id": "PAKH",
      "latitude": 56.94,
      "longitude": -154.18,
      "elevation": 13.0,
      "station_name": "AKHIOK",
      "station_network": "AK_ASOS",
      "timezone": "America/Anchorage"
    },
    {
      "station_id": "LTBT",
      "latitude": 38.9167,
      "longitude": 27.85,
      "elevation": 106.301704,
      "station_name": "Akhisar",
      "station_network": "TR__ASOS",
      "timezone": "Europe/Mariehamn"
    },
    {
      "station_id": "PFZK",
      "latitude": 60.91381,
      "longitude": -161.49333,
      "elevation": 4.0,
      "station_name": "Akiachak",
      "station_network": "AK_ASOS",
      "timezone": "America/Anchorage"
    },
    {
      "station_id": "RJSK",
      "latitude": 39.61667,
      "longitude": 140.21667,
      "elevation": 96.0,
      "station_name": "Akita",
      "station_network": "JP__ASOS",
      "timezone": "Asia/Tokyo"
    },
    {
      "station_id": "CYKD",
      "latitude": 68.22333,
      "longitude": -135.00583,
      "elevation": 7.0,
      "station_name": "AKLAVIK",
      "station_network": "CA_NT_ASOS",
      "timezone": "America/Denver"
    },
    {
      "station_id": "AKR",
      "latitude": 41.0375,
      "longitude": -81.46692,
      "elevation": 325.0,
      "station_name": "Akron",
      "station_network": "OH_ASOS",
      "timezone": "America/New_York"
    },
    {
      "station_id": "CAK",
      "latitude": 40.9161,
      "longitude": -81.4422,
      "elevation": 374.0,
      "station_name": "Akron / Canton",
      "station_network": "OH_ASOS",
      "timezone": "America/New_York"
    },
    {
      "station_id": "AKO",
      "latitude": 40.17563,
      "longitude": -103.22203,
      "elevation": 1431.0,
      "station_name": "AKRON/WASHINGTON CO",
      "station_network": "CO_ASOS",
      "timezone": "America/Denver"
    },
    {
      "station_id": "LCRA",
      "latitude": 34.59042,
      "longitude": 32.98786,
      "elevation": 23.0,
      "station_name": "Akrotiri",
      "station_network": "CY__ASOS",
      "timezone": "Europe/Mariehamn"
    },
    {
      "station_id": "UATE",
      "latitude": 43.86005,
      "longitude": 51.09198,
      "elevation": 22.0,
      "station_name": "Aktau",
      "station_network": "KZ__ASOS",
      "timezone": "Asia/Tashkent"
    },
    {
      "station_id": "UATT",
      "latitude": 50.28333,
      "longitude": 57.15,
      "elevation": 227.0,
      "station_name": "Aktyubinsk",
      "station_network": "KZ__ASOS",
      "timezone": "Asia/Tashkent"
    },
    {
      "station_id": "CYKO",
      "latitude": 60.81667,
      "longitude": -78.15,
      "elevation": 9.0,
      "station_name": "AKULIVIK",
      "station_network": "CA_QC_ASOS",
      "timezone": "America/New_York"
    },
    {
      "station_id": "PAUT",
      "latitude": 54.1446,
      "longitude": -165.6041,
      "elevation": 20.6849,
      "station_name": "Akun",
      "station_network": "AK_ASOS",
      "timezone": "America/Anchorage"
    },
    {
      "station_id": "DNAK",
      "latitude": 7.24674,
      "longitude": 5.30101,
      "elevation": 336.0,
      "station_name": "Akure",
      "station_network": "NG__ASOS",
      "timezone": "Europe/Paris"
    },
    {
      "station_id": "BIAR",
      "latitude": 65.68558,
      "longitude": -18.10023,
      "elevation": 27.0,
      "station_name": "Akureyri",
      "station_network": "IS__ASOS",
      "timezone": "Europe/London"
    },
    {
      "station_id": "EET",
      "latitude": 33.17838,
      "longitude": -86.78178,
      "elevation": 172.0,
      "station_name": "Alabaster",
      "station_network": "AL_ASOS",
      "timezone": "America/Chicago"
    },
    {
      "station_id": "OEAH",
      "latitude": 25.28531,
      "longitude": 49.48519,
      "elevation": 172.0,
      "station_name": "Al-ahsa",
      "station_network": "SA__ASOS",
      "timezone": "Asia/Riyadh"
    },
    {
      "station_id": "OMAL",
      "latitude": 24.26167,
      "longitude": 55.60917,
      "elevation": 262.0,
      "station_name": "Al Ain",
      "station_network": "AE__ASOS",
      "timezone": "Asia/Dubai"
    },
    {
      "station_id": "GYF",
      "latitude": 26.129,
      "longitude": -94.898,
      "elevation": 65.0,
      "station_name": "Alaminos Canyon Block 857",
      "station_network": "TX_ASOS",
      "timezone": "America/Chicago"
    },
    {
      "station_id": "ALM",
      "latitude": 32.83994,
      "longitude": -105.99058,
      "elevation": 1279.0,
      "station_name": "ALAMOGORDO-WHITE",
      "station_network": "NM_ASOS",
      "timezone": "America/Denver"
    },
    {
      "station_id": "ALS",
      "latitude": 37.43889,
      "longitude": -105.86139,
      "elevation": 2299.0,
      "station_name": "ALAMOSA MUNI(AWOS)",
      "station_network": "CO_ASOS",
      "timezone": "America/Denver"
    },
    {
      "station_id": "QAJ",
      "latitude": 33.78333,
      "longitude": 42.43333,
      "elevation": 178.52405,
      "station_name": "Al Asad",
      "station_network": "IQ__ASOS",
      "timezone": "Asia/Riyadh"
    },
    {
      "station_id": "LEAB",
      "latitude": 38.95222,
      "longitude": -1.86306,
      "elevation": 704.0,
      "station_name": "Albacete",
      "station_network": "ES__ASOS",
      "timezone": "Europe/Paris"
    },
    {
      "station_id": "SBLB",
      "latitude": -22.1094,
      "longitude": -39.9169,
      "elevation": 10.0,
      "station_name": "ALBACORA P25 OIL PLATFORM",
      "station_network": "BR__ASOS",
      "timezone": "America/Sao_Paulo"
    },
    {
      "station_id": "UNI",
      "latitude": 39.21189,
      "longitude": -82.22925,
      "elevation": 233.5,
      "station_name": "Albany",
      "station_network": "OH_ASOS",
      "timezone": "America/New_York"
    },
    {
      "station_id": "S12",
      "latitude": 44.6378,
      "longitude": -123.0594,
      "elevation": 69.0,
      "station_name": "Albany",
      "station_network": "OR_ASOS",
      "timezone": "America/Los_Angeles"
    },
    {
      "station_id": "ALB",
      "latitude": 42.75757,
      "longitude": -73.80361,
      "elevation": 89.0,
      "station_name": "ALBANY COUNTY ARPT",
      "station_network": "NY_ASOS",
      "timezone": "America/New_York"
    },
    {
      "station_id": "ABY",
      "latitude": 31.53552,
      "longitude": -84.19447,
      "elevation": 59.0,
      "station_name": "ALBANY MUNICIPAL",
      "station_network": "GA_ASOS",
      "timezone": "America/New_York"
    },
    {
      "station_id": "VUJ",
      "latitude": 35.41669,
      "longitude": -80.1508,
      "elevation": 186.0,
      "station_name": "ALBEMARLE",
      "station_network": "NC_ASOS",
      "timezone": "America/New_York"
    },
    {
      "station_id": "LIMG",
      "latitude": 44.04583,
      "longitude": 8.12556,
      "elevation": 49.0,
      "station_name": "Albenga",
      "station_network": "IT__ASOS",
      "timezone": "Europe/Paris"
    },
    {
      "station_id": "LFAQ",
      "latitude": 49.9715,
      "longitude": 2.6977,
      "elevation": 111.0,
      "station_name": "Albert",
      "station_network": "FR__ASOS",
      "timezone": "Europe/Paris"
    },
    {
      "station_id": "AEL",
      "latitude": 43.68153,
      "longitude": -93.36725,
      "elevation": 383.0,
      "station_name": "ALBERT LEA",
      "station_network": "MN_ASOS",
      "timezone": "America/Chicago"
    },
    {
      "station_id": "BFZ",
      "latitude": 34.2316,
      "longitude": -86.24813,
      "elevation": 317.0,
      "station_name": "Albertville",
      "station_network": "AL_ASOS",
      "timezone": "America/Chicago"
    },
    {
      "station_id": "BVN",
      "latitude": 41.72858,
      "longitude": -98.05576,
      "elevation": 545.3605,
      "station_name": "Albion",
      "station_network": "NE_ASOS",
      "timezone": "America/Chicago"
    },
    {
      "station_id": "AEG",
      "latitude": 35.14517,
      "longitude": -106.79517,
      "elevation": 1779.0,
      "station_name": "ALBUQUERQUE/DOUBLE EAGLE II APT",
      "station_network": "NM_ASOS",
      "timezone": "America/Denver"
    },
    {
      "station_id": "ABQ",
      "latitude": 35.0419,
      "longitude": -106.6155,
      "elevation": 1620.0,
      "station_name": "ALBUQUERQUE INTL",
      "station_network": "NM_ASOS",
      "timezone": "America/Denver"
    },
    {
      "station_id": "EGJA",
      "latitude": 49.70611,
      "longitude": -2.21472,
      "elevation": 71.0,
      "station_name": "Alderney",
      "station_network": "GB__ASOS",
      "timezone": "Europe/Paris"
    },
    {
      "station_id": "QGX",
      "latitude": 24.25,
      "longitude": 54.55,
      "elevation": 23.0,
      "station_name": "AL DHAFRA",
      "station_network": "AE__ASOS",
      "timezone": "Asia/Dubai"
    },
    {
      "station_id": "LFOF",
      "latitude": 48.44556,
      "longitude": 0.11028,
      "elevation": 141.0,
      "station_name": "ALENCON/VALFRAMBERT",
      "station_network": "FR__ASOS",
      "timezone": "Europe/Paris"
    },
    {
      "station_id": "OSAP",
      "latitude": 36.18333,
      "longitude": 37.2,
      "elevation": 393.0,
      "station_name": "Aleppo",
      "station_network": "SY__ASOS",
      "timezone": "Europe/Mariehamn"
    },
    {
      "station_id": "CYLT",
      "latitude": 82.51778,
      "longitude": -62.28056,
      "elevation": 31.0,
      "station_name": "ALERT",
      "station_network": "CA_NU_ASOS",
      "timezone": "America/New_York"
    },
    {
      "station_id": "ENAL",
      "latitude": 62.56167,
      "longitude": 6.115,
      "elevation": 22.0,
      "station_name": "Alesund",
      "station_network": "NO__ASOS",
      "timezone": "Europe/Paris"
    },
    {
      "station_id": "ALX",
      "latitude": 32.91427,
      "longitude": -85.96126,
      "elevation": 193.0,
      "station_name": "Alexander City",
      "station_network": "AL_ASOS",
      "timezone": "America/Chicago"
    },
    {
      "station_id": "HEBA",
      "latitude": 30.9177,
      "longitude": 29.6964,
      "elevation": 54.0,
      "station_name": "Alexandria",
      "station_network": "EG__ASOS",
      "timezone": "Europe/Mariehamn"
    },
    {
      "station_id": "AXN",
      "latitude": 45.86631,
      "longitude": -95.39467,
      "elevation": 433.0,
      "station_name": "ALEXANDRIA",
      "station_network": "MN_ASOS",
      "timezone": "America/Chicago"
    },
    {
      "station_id": "ESF",
      "latitude": 31.39634,
      "longitude": -92.28273,
      "elevation": 25.399994,
      "station_name": "Alexandria - Esler",
      "station_network": "LA_ASOS",
      "timezone": "America/Chicago"
    },
    {
      "station_id": "AEX",
      "latitude": 31.33472,
      "longitude": -92.55861,
      "elevation": 27.0,
      "station_name": "ALEXANDRIA INTL/ENGLAND AFB",
      "station_network": "LA_ASOS",
      "timezone": "America/Chicago"
    },
    {
      "station_id": "LGAL",
      "latitude": 40.85469,
      "longitude": 25.93903,
      "elevation": 4.0,
      "station_name": "Alexandroupoli",
      "station_network": "GR__ASOS",
      "timezone": "Europe/Mariehamn"
    },
    {
      "station_id": "LEAG",
      "latitude": 36.129,
      "longitude": -5.441,
      "elevation": 6.0,
      "station_name": "Algeciras",
      "station_network": "ES__ASOS",
      "timezone": "Europe/Paris"
    },
    {
      "station_id": "LIEA",
      "latitude": 40.63111,
      "longitude": 8.28861,
      "elevation": 23.0,
      "station_name": "Alghero",
      "station_network": "IT__ASOS",
      "timezone": "Europe/Paris"
    },
    {
      "station_id": "DAAG",
      "latitude": 36.69101,
      "longitude": 3.21541,
      "elevation": 25.0,
      "station_name": "Algier",
      "station_network": "DZ__ASOS",
      "timezone": "Europe/Paris"
    },
    {
      "station_id": "AXA",
      "latitude": 43.07965,
      "longitude": -94.27237,
      "elevation": 368.8,
      "station_name": "Algona",
      "station_network": "IA_ASOS",
      "timezone": "America/Chicago"
    },
    {
      "station_id": "CTNK",
      "latitude": 45.53333,
      "longitude": -78.26667,
      "elevation": 410.0,
      "station_name": "ALGONQUIN PARK EAST GATE",
      "station_network": "CA_ON_ASOS",
      "timezone": "America/New_York"
    },
    {
      "station_id": "GMTA",
      "latitude": 35.1771,
      "longitude": -3.83953,
      "elevation": 14.0,
      "station_name": "Al Hociema",
      "station_network": "MA__ASOS",
      "timezone": "Europe/Lisbon"
    },
    {
      "station_id": "LEAL",
      "latitude": 38.28217,
      "longitude": -0.55816,
      "elevation": 31.0,
      "station_name": "Alicante",
      "station_network": "ES__ASOS",
      "timezone": "Europe/Paris"
    },
    {
      "station_id": "ALI",
      "latitude": 27.74089,
      "longitude": -98.02694,
      "elevation": 54.0,
      "station_name": "ALICE INTL AIRPORT",
      "station_network": "TX_ASOS",
      "timezone": "America/Chicago"
    },
    {
      "station_id": "YBAS",
      "latitude": -23.7951,
      "longitude": 133.889,
      "elevation": 541.0,
      "station_name": "Alice Springs",
      "station_network": "AU__ASOS",
      "timezone": "Australia/Adelaide"
    },
    {
      "station_id": "OESK",
      "latitude": 29.78513,
      "longitude": 40.10001,
      "elevation": 684.0,
      "station_name": "Al-Jawf",
      "station_network": "SA__ASOS",
      "timezone": "Asia/Riyadh"
    },
    {
      "station_id": "OEPS",
      "latitude": 24.0627,
      "longitude": 47.5805,
      "elevation": 490.19266,
      "station_name": "Al-Kharj",
      "station_network": "SA__ASOS",
      "timezone": "Asia/Riyadh"
    },
    {
      "station_id": "OEKJ",
      "latitude": 24.06667,
      "longitude": 47.58333,
      "elevation": 503.0,
      "station_name": "AL KHARJ",
      "station_network": "SA__ASOS",
      "timezone": "Asia/Riyadh"
    },
    {
      "station_id": "VEAB",
      "latitude": 25.44,
      "longitude": 81.734,
      "elevation": 100.0,
      "station_name": "Allahabad Bamrauli AFS",
      "station_network": "IN__ASOS",
      "timezone": "Asia/Kolkata"
    },
    {
      "station_id": "AQX",
      "latitude": 32.9951,
      "longitude": -81.2703,
      "elevation": 48.706158,
      "station_name": "Allendale",
      "station_network": "SC_ASOS",
      "timezone": "America/New_York"
    },
    {
      "station_id": "XLL",
      "latitude": 40.57028,
      "longitude": -75.48831,
      "elevation": 122.0,
      "station_name": "Allentown",
      "station_network": "PA_ASOS",
      "timezone": "America/New_York"
    },
    {
      "station_id": "ABE",
      "latitude": 40.65083,
      "longitude": -75.44917,
      "elevation": 117.0,
      "station_name": "ALLENTOWN-BETHLEHEM",
      "station_network": "PA_ASOS",
      "timezone": "America/New_York"
    },
    {
      "station_id": "AIA",
      "latitude": 42.05722,
      "longitude": -102.8,
      "elevation": 1195.584,
      "station_name": "ALLIANCE",
      "station_network": "NE_ASOS",
      "timezone": "America/Denver"
    },
    {
      "station_id": "AMN",
      "latitude": 43.32214,
      "longitude": -84.68795,
      "elevation": 229.8,
      "station_name": "Alma",
      "station_network": "MI_ASOS",
      "timezone": "America/New_York"
    },
    {
      "station_id": "AMG",
      "latitude": 31.53606,
      "longitude": -82.50656,
      "elevation": 61.0,
      "station_name": "ALMA/BACON CO.",
      "station_network": "GA_ASOS",
      "timezone": "America/New_York"
    },
    {
      "station_id": "UAAA",
      "latitude": 43.2056,
      "longitude": 77.0439,
      "elevation": 1575.0,
      "station_name": "Almaty",
      "station_network": "KZ__ASOS",
      "timezone": "Asia/Almaty"
    },
    {
      "station_id": "LEAM",
      "latitude": 36.84394,
      "longitude": -2.3701,
      "elevation": 21.0,
      "station_name": "Almeria",
      "station_network": "ES__ASOS",
      "timezone": "Europe/Paris"
    },
    {
      "station_id": "NIUE",
      "latitude": -19.08003,
      "longitude": -169.92564,
      "elevation": 20.0,
      "station_name": "Alofi",
      "station_network": "WS__ASOS",
      "timezone": "Pacific/Pago_Pago"
    },
    {
      "station_id": "WMKA",
      "latitude": 6.18967,
      "longitude": 100.39818,
      "elevation": 5.0,
      "station_name": "Alor Setar",
      "station_network": "MY__ASOS",
      "timezone": "Australia/Perth"
    },
    {
      "station_id": "APN",
      "latitude": 45.07167,
      "longitude": -83.56444,
      "elevation": 210.0,
      "station_name": "ALPENA",
      "station_network": "MI_ASOS",
      "timezone": "America/New_York"
    },
    {
      "station_id": "46U",
      "latitude": 43.1846,
      "longitude": -111.0424,
      "elevation": 1713.6123,
      "station_name": "Alpine",
      "station_network": "WY_ASOS",
      "timezone": "America/Denver"
    },
    {
      "station_id": "PALP",
      "latitude": 70.3443,
      "longitude": -150.9447,
      "elevation": 7.998743,
      "station_name": "Alpine",
      "station_network": "AK_ASOS",
      "timezone": "America/Anchorage"
    },
    {
      "station_id": "E38",
      "latitude": 30.384,
      "longitude": -103.684,
      "elevation": 1376.0,
      "station_name": "ALPINE",
      "station_network": "TX_ASOS",
      "timezone": "America/Chicago"
    },
    {
      "station_id": "LSMA",
      "latitude": 46.94306,
      "longitude": 8.28583,
      "elevation": 444.0,
      "station_name": "Alpnach",
      "station_network": "CH__ASOS",
      "timezone": "Europe/Paris"
    },
    {
      "station_id": "ENAT",
      "latitude": 69.9775,
      "longitude": 23.35806,
      "elevation": 3.0,
      "station_name": "Alta",
      "station_network": "NO__ASOS",
      "timezone": "Europe/Paris"
    },
    {
      "station_id": "SBAT",
      "latitude": -9.86609,
      "longitude": -56.10621,
      "elevation": 288.0,
      "station_name": "Alta Floresta",
      "station_network": "BR__ASOS",
      "timezone": "America/La_Paz"
    },
    {
      "station_id": "SBHT",
      "latitude": -3.2,
      "longitude": -52.2,
      "elevation": 74.0,
      "station_name": "Altamira",
      "station_network": "BR__ASOS",
      "timezone": "America/Sao_Paulo"
    },
    {
      "station_id": "EDAC",
      "latitude": 50.98182,
      "longitude": 12.50636,
      "elevation": 195.0,
      "station_name": "Altenburg",
      "station_network": "DE__ASOS",
      "timezone": "Europe/Paris"
    },
    {
      "station_id": "LSZR",
      "latitude": 47.48503,
      "longitude": 9.56077,
      "elevation": 398.0,
      "station_name": "Altenrhein",
      "station_network": "CH__ASOS",
      "timezone": "Europe/Paris"
    },
    {
      "station_id": "ETHA",
      "latitude": 47.83639,
      "longitude": 10.87222,
      "elevation": 760.0,
      "station_name": "ALTENSTADT",
      "station_network": "DE__ASOS",
      "timezone": "Europe/Paris"
    },
    {
      "station_id": "ALN",
      "latitude": 38.88992,
      "longitude": -90.04599,
      "elevation": 166.0,
      "station_name": "ALTON/ST LOUIS R",
      "station_network": "IL_ASOS",
      "timezone": "America/Chicago"
    },
    {
      "station_id": "AOO",
      "latitude": 40.29636,
      "longitude": -78.32003,
      "elevation": 458.0,
      "station_name": "ALTOONA/BLAIR CO.",
      "station_network": "PA_ASOS",
      "timezone": "America/New_York"
    },
    {
      "station_id": "SCAP",
      "latitude": -43.62,
      "longitude": -71.78,
      "elevation": 277.0,
      "station_name": "ALTO PALENA",
      "station_network": "CL__ASOS",
      "timezone": "America/La_Paz"
    },
    {
      "station_id": "AAT",
      "latitude": 41.49139,
      "longitude": -120.56444,
      "elevation": 1333.0,
      "station_name": "ALTURAS (WAS O00)",
      "station_network": "CA_ASOS",
      "timezone": "America/Los_Angeles"
    },
    {
      "station_id": "AXS",
      "latitude": 34.69881,
      "longitude": -99.33847,
      "elevation": 436.8,
      "station_name": "Altus",
      "station_network": "OK_ASOS",
      "timezone": "America/Chicago"
    },
    {
      "station_id": "LTS",
      "latitude": 34.66707,
      "longitude": -99.26668,
      "elevation": 420.0,
      "station_name": "ALTUS AFB",
      "station_network": "OK_ASOS",
      "timezone": "America/Chicago"
    },
    {
      "station_id": "OEAO",
      "latitude": 26.48297,
      "longitude": 38.11871,
      "elevation": 624.0,
      "station_name": "Al-Ula",
      "station_network": "SA__ASOS",
      "timezone": "Asia/Riyadh"
    },
    {
      "station_id": "AVK",
      "latitude": 36.77317,
      "longitude": -98.66995,
      "elevation": 449.0,
      "station_name": "ALVA RGNL AIRPORT",
      "station_network": "OK_ASOS",
      "timezone": "America/Chicago"
    },
    {
      "station_id": "LPAR",
      "latitude": 38.88333,
      "longitude": -9.03333,
      "elevation": 3.0,
      "station_name": "Alverca",
      "station_network": "PT__ASOS",
      "timezone": "Europe/Lisbon"
    },
    {
      "station_id": "RJKA",
      "latitude": 28.43083,
      "longitude": 129.7125,
      "elevation": 7.0,
      "station_name": "Amami",
      "station_network": "JP__ASOS",
      "timezone": "Asia/Tokyo"
    },
    {
      "station_id": "AMA",
      "latitude": 35.21936,
      "longitude": -101.70592,
      "elevation": 1099.0,
      "station_name": "Amarillo - Rick Husband Intl",
      "station_network": "TX_ASOS",
      "timezone": "America/Chicago"
    },
    {
      "station_id": "SEAM",
      "latitude": -1.2119,
      "longitude": -78.5747,
      "elevation": 2568.2705,
      "station_name": "Ambato",
      "station_network": "EC__ASOS",
      "timezone": "America/New_York"
    },
    {
      "station_id": "LFXA",
      "latitude": 45.97639,
      "longitude": 5.32944,
      "elevation": 257.0,
      "station_name": "Amberieu",
      "station_network": "FR__ASOS",
      "timezone": "Europe/Paris"
    },
    {
      "station_id": "YAMB",
      "latitude": -27.6297,
      "longitude": 152.7111,
      "elevation": 28.0,
      "station_name": "Amberley",
      "station_network": "AU__ASOS",
      "timezone": "Australia/Sydney"
    },
    {
      "station_id": "PAFM",
      "latitude": 67.10631,
      "longitude": -157.85747,
      "elevation": 88.0,
      "station_name": "AMBLER",
      "station_network": "AK_ASOS",
      "timezone": "America/Anchorage"
    },
    {
      "station_id": "WAPP",
      "latitude": -3.71026,
      "longitude": 128.08914,
      "elevation": 12.0,
      "station_name": "Ambon",
      "station_network": "ID__ASOS",
      "timezone": "Asia/Tokyo"
    },
    {
      "station_id": "UGAM",
      "latitude": 42.52694,
      "longitude": 43.13556,
      "elevation": 541.78143,
      "station_name": "Ambrolauri",
      "station_network": "GE__ASOS",
      "timezone": "Europe/Moscow"
    },
    {
      "station_id": "LIBA",
      "latitude": 41.53806,
      "longitude": 15.71389,
      "elevation": 60.0,
      "station_name": "Amendola",
      "station_network": "IT__ASOS",
      "timezone": "Europe/Paris"
    },
    {
      "station_id": "ACJ",
      "latitude": 32.11081,
      "longitude": -84.18886,
      "elevation": 143.0,
      "station_name": "Americus",
      "station_network": "GA_ASOS",
      "timezone": "America/New_York"
    },
    {
      "station_id": "AMW",
      "latitude": 41.99044,
      "longitude": -93.61852,
      "elevation": 280.0,
      "station_name": "Ames",
      "station_network": "IA_ASOS",
      "timezone": "America/Chicago"
    },
    {
      "station_id": "GVAC",
      "latitude": 16.74194,
      "longitude": -22.94889,
      "elevation": 55.0,
      "station_name": "Amilcar Cabral",
      "station_network": "CV__ASOS",
      "timezone": "Atlantic/Cape_Verde"
    },
    {
      "station_id": "OJAI",
      "latitude": 31.72256,
      "longitude": 35.99321,
      "elevation": 730.0,
      "station_name": "Amman",
      "station_network": "JO__ASOS",
      "timezone": "Europe/Mariehamn"
    },
    {
      "station_id": "OJAM",
      "latitude": 31.9727,
      "longitude": 35.99157,
      "elevation": 773.0,
      "station_name": "Amman",
      "station_network": "JO__ASOS",
      "timezone": "Europe/Mariehamn"
    },
    {
      "station_id": "VIAR",
      "latitude": 31.63333,
      "longitude": 74.86667,
      "elevation": 234.0,
      "station_name": "Amritsar",
      "station_network": "IN__ASOS",
      "timezone": "Asia/Kolkata"
    },
    {
      "station_id": "EHAM",
      "latitude": 52.31541,
      "longitude": 4.79016,
      "elevation": 9.0,
      "station_name": "Amsterdam",
      "station_network": "NL__ASOS",
      "timezone": "Europe/Paris"
    },
    {
      "station_id": "NZSP",
      "latitude": -90.0,
      "longitude": 0.0,
      "elevation": 2830.0,
      "station_name": "Amundsen-Scott South Pole",
      "station_network": "AQ__ASOS",
      "timezone": null
    },
    {
      "station_id": "3U3",
      "latitude": 46.1531,
      "longitude": -112.8678,
      "elevation": 1524.888,
      "station_name": "Anaconda",
      "station_network": "MT_ASOS",
      "timezone": "America/Denver"
    },
    {
      "station_id": "UHMA",
      "latitude": 64.78333,
      "longitude": 177.56667,
      "elevation": 62.0,
      "station_name": "Anadyr",
      "station_network": "RU__ASOS",
      "timezone": "Asia/Kamchatka"
    },
    {
      "station_id": "PAKP",
      "latitude": 68.1336,
      "longitude": -151.74334,
      "elevation": 643.0,
      "station_name": "ANAKTUVUK PASS",
      "station_network": "AK_ASOS",
      "timezone": "America/Anchorage"
    },
    {
      "station_id": "URKA",
      "latitude": 44.88333,
      "longitude": 37.28333,
      "elevation": 53.0,
      "station_name": "Anapa",
      "station_network": "RU__ASOS",
      "timezone": "Europe/Moscow"
    },
    {
      "station_id": "SBAN",
      "latitude": -16.22915,
      "longitude": -48.96427,
      "elevation": 1137.0,
      "station_name": "Anapolis",
      "station_network": "BR__ASOS",
      "timezone": "America/Sao_Paulo"
    },
    {
      "station_id": "PANC",
      "latitude": 61.16972,
      "longitude": -150.02611,
      "elevation": 40.0,
      "station_name": "ANCHORAGE INTL ARPT (ASOS)",
      "station_network": "AK_ASOS",
      "timezone": "America/Anchorage"
    },
    {
      "station_id": "LIPY",
      "latitude": 43.61667,
      "longitude": 13.36028,
      "elevation": 10.0,
      "station_name": "Ancona",
      "station_network": "IT__ASOS",
      "timezone": "Europe/Paris"
    },
    {
      "station_id": "SPHY",
      "latitude": -13.70641,
      "longitude": -73.35038,
      "elevation": 3548.0,
      "station_name": "Andahuaylas",
      "station_network": "PE__ASOS",
      "timezone": "America/New_York"
    },
    {
      "station_id": "79J",
      "latitude": 31.30614,
      "longitude": -86.39017,
      "elevation": 98.0,
      "station_name": "Andalusia",
      "station_network": "AL_ASOS",
      "timezone": "America/Chicago"
    },
    {
      "station_id": "PGUA",
      "latitude": 13.56667,
      "longitude": 144.91667,
      "elevation": 186.5,
      "station_name": "Andersen",
      "station_network": "GU_ASOS",
      "timezone": "Australia/Sydney"
    },
    {
      "station_id": "AND",
      "latitude": 34.49458,
      "longitude": -82.70939,
      "elevation": 238.0,
      "station_name": "ANDERSON CO AIRPORT",
      "station_network": "SC_ASOS",
      "timezone": "America/New_York"
    },
    {
      "station_id": "AID",
      "latitude": 40.10861,
      "longitude": -85.613,
      "elevation": 280.0,
      "station_name": "ANDERSON MUNICIP",
      "station_network": "IN_ASOS",
      "timezone": "America/New_York"
    },
    {
      "station_id": "E11",
      "latitude": 32.3311,
      "longitude": -102.5295,
      "elevation": 963.14166,
      "station_name": "Andews",
      "station_network": "TX_ASOS",
      "timezone": "America/Chicago"
    },
    {
      "station_id": "12N",
      "latitude": 41.00889,
      "longitude": -74.73667,
      "elevation": 178.0,
      "station_name": "ANDOVER/AEROFLEX-ANDOVER AIRPORT",
      "station_network": "NJ_ASOS",
      "timezone": "America/New_York"
    },
    {
      "station_id": "ENAN",
      "latitude": 69.2925,
      "longitude": 16.14417,
      "elevation": 14.0,
      "station_name": "Andoya",
      "station_network": "NO__ASOS",
      "timezone": "Europe/Paris"
    },
    {
      "station_id": "LGAD",
      "latitude": 37.92071,
      "longitude": 21.29258,
      "elevation": 12.0,
      "station_name": "Andravida",
      "station_network": "GR__ASOS",
      "timezone": "Europe/Mariehamn"
    },
    {
      "station_id": "CXAG",
      "latitude": 53.91694,
      "longitude": -112.27917,
      "elevation": 625.0,
      "station_name": "ANDREW AGDM  ALTA",
      "station_network": "CA_AB_ASOS",
      "timezone": "America/Denver"
    },
    {
      "station_id": "ADW",
      "latitude": 38.81083,
      "longitude": -76.867,
      "elevation": 86.0,
      "station_name": "ANDREWS AFB",
      "station_network": "MD_ASOS",
      "timezone": "America/New_York"
    },
    {
      "station_id": "RHP",
      "latitude": 35.19523,
      "longitude": -83.86304,
      "elevation": 518.0,
      "station_name": "ANDREWS-MURPHY_AIRPORT",
      "station_network": "NC_ASOS",
      "timezone": "America/New_York"
    },
    {
      "station_id": "MYAF",
      "latitude": 24.6983,
      "longitude": -77.7956,
      "elevation": 8.549645,
      "station_name": "Andros Town Fresh Creek",
      "station_network": "BS__ASOS",
      "timezone": "America/New_York"
    },
    {
      "station_id": "NVVA",
      "latitude": -20.2492,
      "longitude": 169.771,
      "elevation": -2.0,
      "station_name": "Anelghowhat",
      "station_network": "VU__ASOS",
      "timezone": "Pacific/Guadalcanal"
    },
    {
      "station_id": "GMMC",
      "latitude": 33.56667,
      "longitude": -7.66667,
      "elevation": 62.0,
      "station_name": "ANFA",
      "station_network": "MA__ASOS",
      "timezone": "Europe/Lisbon"
    },
    {
      "station_id": "RPLC",
      "latitude": 15.16667,
      "longitude": 120.56667,
      "elevation": 196.0,
      "station_name": "Angeles City",
      "station_network": "PH__ASOS",
      "timezone": "Australia/Perth"
    },
    {
      "station_id": "AXX",
      "latitude": 36.422,
      "longitude": -105.28991,
      "elevation": 2554.0,
      "station_name": "Angel Fire",
      "station_network": "NM_ASOS",
      "timezone": "America/Denver"
    },
    {
      "station_id": "ESTA",
      "latitude": 56.29607,
      "longitude": 12.84714,
      "elevation": 47.0,
      "station_name": "Ängelholm",
      "station_network": "SE__ASOS",
      "timezone": "Europe/Paris"
    },
    {
      "station_id": "EGOV",
      "latitude": 53.25268,
      "longitude": -4.53653,
      "elevation": 11.0,
      "station_name": "Angelsey",
      "station_network": "GB__ASOS",
      "timezone": "Europe/London"
    },
    {
      "station_id": "LFJR",
      "latitude": 47.5603,
      "longitude": -0.3122,
      "elevation": 60.0,
      "station_name": "Angers/Marcé",
      "station_network": "FR__ASOS",
      "timezone": "Europe/Paris"
    },
    {
      "station_id": "LBX",
      "latitude": 29.10864,
      "longitude": -95.46208,
      "elevation": 8.0,
      "station_name": "ANGLETON/LAKE JACKS",
      "station_network": "TX_ASOS",
      "timezone": "America/Chicago"
    },
    {
      "station_id": "ANQ",
      "latitude": 41.6397,
      "longitude": -85.08349,
      "elevation": 293.44824,
      "station_name": "Angola",
      "station_network": "IN_ASOS",
      "timezone": "America/New_York"
    },
    {
      "station_id": "PAGN",
      "latitude": 57.5036,
      "longitude": -134.5851,
      "elevation": 6.9889026,
      "station_name": "ANGOON",
      "station_network": "AK_ASOS",
      "timezone": "America/Anchorage"
    },
    {
      "station_id": "LFBU",
      "latitude": 45.7292,
      "longitude": 0.2215,
      "elevation": 133.0,
      "station_name": "Angouleme",
      "station_network": "FR__ASOS",
      "timezone": "Europe/Paris"
    },
    {
      "station_id": "PANI",
      "latitude": 61.5816,
      "longitude": -159.54304,
      "elevation": 26.0,
      "station_name": "ANIAK (AWOS)",
      "station_network": "AK_ASOS",
      "timezone": "America/Anchorage"
    },
    {
      "station_id": "LTAC",
      "latitude": 40.12808,
      "longitude": 32.99508,
      "elevation": 949.0,
      "station_name": "Ankara",
      "station_network": "TR__ASOS",
      "timezone": "Europe/Mariehamn"
    },
    {
      "station_id": "LTAE",
      "latitude": 40.0789,
      "longitude": 32.5656,
      "elevation": 835.63306,
      "station_name": "Ankara",
      "station_network": "TR__ASOS",
      "timezone": "Europe/Mariehamn"
    },
    {
      "station_id": "LTAD",
      "latitude": 39.9498,
      "longitude": 32.6886,
      "elevation": 809.0,
      "station_name": "Ankara",
      "station_network": "TR__ASOS",
      "timezone": "Europe/Mariehamn"
    },
    {
      "station_id": "LTAB",
      "latitude": 39.935,
      "longitude": 32.7408,
      "elevation": 820.23395,
      "station_name": "Ankara",
      "station_network": "TR__ASOS",
      "timezone": "Europe/Mariehamn"
    },
    {
      "station_id": "IKV",
      "latitude": 41.68781,
      "longitude": -93.56948,
      "elevation": 270.7,
      "station_name": "ANKENY",
      "station_network": "IA_ASOS",
      "timezone": "America/Chicago"
    },
    {
      "station_id": "DABB",
      "latitude": 36.82223,
      "longitude": 7.80917,
      "elevation": 4.0,
      "station_name": "Annaba",
      "station_network": "DZ__ASOS",
      "timezone": "Europe/Paris"
    },
    {
      "station_id": "NAK",
      "latitude": 38.9913,
      "longitude": -76.4891,
      "elevation": 1.3335942,
      "station_name": "Annapolis",
      "station_network": "MD_ASOS",
      "timezone": "America/New_York"
    },
    {
      "station_id": "ARB",
      "latitude": 42.22396,
      "longitude": -83.73972,
      "elevation": 251.0,
      "station_name": "ANN ARBOR",
      "station_network": "MI_ASOS",
      "timezone": "America/New_York"
    },
    {
      "station_id": "LFLP",
      "latitude": 45.92972,
      "longitude": 6.10583,
      "elevation": 463.0,
      "station_name": "Annecy",
      "station_network": "FR__ASOS",
      "timezone": "Europe/Paris"
    },
    {
      "station_id": "ANB",
      "latitude": 33.59044,
      "longitude": -85.84789,
      "elevation": 182.0,
      "station_name": "Anniston",
      "station_network": "AL_ASOS",
      "timezone": "America/Chicago"
    },
    {
      "station_id": "ETEB",
      "latitude": 49.31667,
      "longitude": 10.63333,
      "elevation": 467.0,
      "station_name": "ANSBACH AHP / KATTERBACH GERM",
      "station_network": "DE__ASOS",
      "timezone": "Europe/Paris"
    },
    {
      "station_id": "SPHZ",
      "latitude": -9.34744,
      "longitude": -77.59839,
      "elevation": 2760.0,
      "station_name": "Anta",
      "station_network": "PE__ASOS",
      "timezone": "America/New_York"
    },
    {
      "station_id": "LTAI",
      "latitude": 36.86667,
      "longitude": 30.73333,
      "elevation": 54.0,
      "station_name": "Antalya",
      "station_network": "TR__ASOS",
      "timezone": "Europe/Mariehamn"
    },
    {
      "station_id": "LTFG",
      "latitude": 36.2987,
      "longitude": 32.2996,
      "elevation": 27.088682,
      "station_name": "Antalya Gazipasa",
      "station_network": "TR__ASOS",
      "timezone": "Europe/Mariehamn"
    },
    {
      "station_id": "FMMI",
      "latitude": -18.79695,
      "longitude": 47.47881,
      "elevation": 1276.0,
      "station_name": "Antananarivo",
      "station_network": "KM__ASOS",
      "timezone": "Asia/Riyadh"
    },
    {
      "station_id": "AIG",
      "latitude": 45.1542,
      "longitude": -89.11072,
      "elevation": 463.0,
      "station_name": "ANTIGO",
      "station_network": "WI_ASOS",
      "timezone": "America/Chicago"
    },
    {
      "station_id": "TAPA",
      "latitude": 17.1167,
      "longitude": -61.7833,
      "elevation": 19.0,
      "station_name": "Antigua",
      "station_network": "AG__ASOS",
      "timezone": "America/La_Paz"
    },
    {
      "station_id": "SCFA",
      "latitude": -23.45028,
      "longitude": -70.44083,
      "elevation": 120.0,
      "station_name": "Antofagasta",
      "station_network": "CL__ASOS",
      "timezone": "America/La_Paz"
    },
    {
      "station_id": "FMNA",
      "latitude": -12.3494,
      "longitude": 49.29175,
      "elevation": 105.0,
      "station_name": "Antsiranana",
      "station_network": "KM__ASOS",
      "timezone": "Asia/Riyadh"
    },
    {
      "station_id": "EBAW",
      "latitude": 51.18944,
      "longitude": 4.46028,
      "elevation": 14.0,
      "station_name": "Antwerp",
      "station_network": "BE__ASOS",
      "timezone": "Europe/Paris"
    },
    {
      "station_id": "PANV",
      "latitude": 62.64733,
      "longitude": -160.19007,
      "elevation": 99.0,
      "station_name": "ANVIK AIRPORT",
      "station_network": "AK_ASOS",
      "timezone": "America/Anchorage"
    },
    {
      "station_id": "RJSA",
      "latitude": 40.73333,
      "longitude": 140.68861,
      "elevation": 201.0,
      "station_name": "Aomori",
      "station_network": "JP__ASOS",
      "timezone": "Asia/Tokyo"
    },
    {
      "station_id": "LIMW",
      "latitude": 45.73846,
      "longitude": 7.36872,
      "elevation": 545.0,
      "station_name": "Aosta",
      "station_network": "IT__ASOS",
      "timezone": "Europe/Paris"
    },
    {
      "station_id": "AAF",
      "latitude": 29.72761,
      "longitude": -85.02744,
      "elevation": 6.0,
      "station_name": "APALACHICOLA MUNI (ASOS)",
      "station_network": "FL_ASOS",
      "timezone": "America/New_York"
    },
    {
      "station_id": "AQP",
      "latitude": 45.22753,
      "longitude": -96.00433,
      "elevation": 311.0,
      "station_name": "APPLETON MUNICIP",
      "station_network": "MN_ASOS",
      "timezone": "America/Chicago"
    },
    {
      "station_id": "ATW",
      "latitude": 44.25808,
      "longitude": -88.51908,
      "elevation": 268.0,
      "station_name": "APPLETON/OUTAGAM",
      "station_network": "WI_ASOS",
      "timezone": "America/Chicago"
    },
    {
      "station_id": "OJAQ",
      "latitude": 29.61162,
      "longitude": 35.01807,
      "elevation": 51.0,
      "station_name": "Aqaba",
      "station_network": "JO__ASOS",
      "timezone": "Europe/Mariehamn"
    },
    {
      "station_id": "SBAR",
      "latitude": -10.984,
      "longitude": -37.07033,
      "elevation": 9.0,
      "station_name": "Aracaju",
      "station_network": "BR__ASOS",
      "timezone": "America/Sao_Paulo"
    },
    {
      "station_id": "SBAU",
      "latitude": -21.1413,
      "longitude": -50.4247,
      "elevation": 415.0,
      "station_name": "Aracatuba",
      "station_network": "BR__ASOS",
      "timezone": "America/Sao_Paulo"
    },
    {
      "station_id": "LRAR",
      "latitude": 46.13361,
      "longitude": 21.35361,
      "elevation": 118.0,
      "station_name": "Arad",
      "station_network": "RO__ASOS",
      "timezone": "Europe/Mariehamn"
    },
    {
      "station_id": "OIHR",
      "latitude": 34.13815,
      "longitude": 49.84729,
      "elevation": 1658.0,
      "station_name": "Arak",
      "station_network": "IR__ASOS",
      "timezone": "Asia/Tehran"
    },
    {
      "station_id": "OERR",
      "latitude": 30.90659,
      "longitude": 41.13822,
      "elevation": 552.0,
      "station_name": "Arar",
      "station_network": "SA__ASOS",
      "timezone": "Asia/Riyadh"
    },
    {
      "station_id": "SKUC",
      "latitude": 7.06888,
      "longitude": -70.73692,
      "elevation": 128.0,
      "station_name": "Arauca",
      "station_network": "CO__ASOS",
      "timezone": "America/New_York"
    },
    {
      "station_id": "SBAX",
      "latitude": -19.5632,
      "longitude": -46.9604,
      "elevation": 998.0,
      "station_name": "Araxa",
      "station_network": "BR__ASOS",
      "timezone": "America/Sao_Paulo"
    },
    {
      "station_id": "ACV",
      "latitude": 40.97811,
      "longitude": -124.10861,
      "elevation": 66.0,
      "station_name": "ARCATA/EUREKA ARPT",
      "station_network": "CA_ASOS",
      "timezone": "America/Los_Angeles"
    },
    {
      "station_id": "CYAB",
      "latitude": 73.0064,
      "longitude": -85.0473,
      "elevation": 45.0,
      "station_name": "Arctic Bay Airport",
      "station_network": "CA_NU_ASOS",
      "timezone": "America/Chicago"
    },
    {
      "station_id": "CXAT",
      "latitude": 72.99278,
      "longitude": -85.01222,
      "elevation": 19.0,
      "station_name": "ARCTIC BAY CS",
      "station_network": "CA_NU_ASOS",
      "timezone": "America/Chicago"
    },
    {
      "station_id": "PARC",
      "latitude": 68.11467,
      "longitude": -145.57942,
      "elevation": 636.0,
      "station_name": "ARCTIC VILLAGE",
      "station_network": "AK_ASOS",
      "timezone": "America/Anchorage"
    },
    {
      "station_id": "OITL",
      "latitude": 38.32568,
      "longitude": 48.42436,
      "elevation": 1316.0,
      "station_name": "Ardabil",
      "station_network": "IR__ASOS",
      "timezone": "Asia/Tehran"
    },
    {
      "station_id": "1F0",
      "latitude": 34.14699,
      "longitude": -97.12265,
      "elevation": 257.0,
      "station_name": "ARDMORE DOWNTOWN EXEC AIRPORT",
      "station_network": "OK_ASOS",
      "timezone": "America/Chicago"
    },
    {
      "station_id": "ADM",
      "latitude": 34.3032,
      "longitude": -97.0195,
      "elevation": 232.0,
      "station_name": "ARDMORE MUNICIPAL",
      "station_network": "OK_ASOS",
      "timezone": "America/Chicago"
    },
    {
      "station_id": "SPQU",
      "latitude": -16.34107,
      "longitude": -71.58308,
      "elevation": 2554.0,
      "station_name": "Arequipa",
      "station_network": "PE__ASOS",
      "timezone": "America/New_York"
    },
    {
      "station_id": "LIQB",
      "latitude": 43.4597,
      "longitude": 11.8456,
      "elevation": 246.83066,
      "station_name": "Arezzo",
      "station_network": "IT__ASOS",
      "timezone": "Europe/Paris"
    },
    {
      "station_id": "CWAR",
      "latitude": 47.29389,
      "longitude": -53.99333,
      "elevation": 16.0,
      "station_name": "ARGENTIA (AUT)",
      "station_network": "CA_NF_ASOS",
      "timezone": "America/St_Johns"
    },
    {
      "station_id": "SCAR",
      "latitude": -18.35139,
      "longitude": -70.33583,
      "elevation": 59.0,
      "station_name": "Arica",
      "station_network": "CL__ASOS",
      "timezone": "America/La_Paz"
    },
    {
      "station_id": "ADF",
      "latitude": 34.09981,
      "longitude": -93.06608,
      "elevation": 57.59382,
      "station_name": "Arkadelphia",
      "station_network": "AR_ASOS",
      "timezone": "America/Chicago"
    },
    {
      "station_id": "ULAA",
      "latitude": 64.50417,
      "longitude": 40.72778,
      "elevation": 19.0,
      "station_name": "Arkhangelsk",
      "station_network": "RU__ASOS",
      "timezone": "Europe/Moscow"
    },
    {
      "station_id": "VOAR",
      "latitude": 13.071,
      "longitude": 79.691,
      "elevation": 80.0,
      "station_name": "Arkonam",
      "station_network": "IN__ASOS",
      "timezone": "Asia/Kolkata"
    },
    {
      "station_id": "ARL",
      "latitude": 41.71,
      "longitude": -106.21,
      "elevation": 2194.0,
      "station_name": "Arlington",
      "station_network": "WY_ASOS",
      "timezone": "America/Denver"
    },
    {
      "station_id": "AWO",
      "latitude": 48.16075,
      "longitude": -122.15903,
      "elevation": 42.0,
      "station_name": "ARLINGTON MUNI",
      "station_network": "WA_ASOS",
      "timezone": "America/Los_Angeles"
    },
    {
      "station_id": "GKY",
      "latitude": 32.66386,
      "longitude": -97.09428,
      "elevation": 192.0,
      "station_name": "ARLINGTON (WAS F54)",
      "station_network": "TX_ASOS",
      "timezone": "America/Chicago"
    },
    {
      "station_id": "EEEI",
      "latitude": 59.2603,
      "longitude": 24.2085,
      "elevation": 19.851278,
      "station_name": "Armari Air Force Base",
      "station_network": "EE__ASOS",
      "timezone": "Europe/Helsinki"
    },
    {
      "station_id": "SKAR",
      "latitude": 4.5,
      "longitude": -75.71667,
      "elevation": 1219.0,
      "station_name": "Armenia",
      "station_network": "CO__ASOS",
      "timezone": "America/New_York"
    },
    {
      "station_id": "CYYW",
      "latitude": 50.2903,
      "longitude": -88.9097,
      "elevation": 325.47046,
      "station_name": "Armstrong",
      "station_network": "CA_ON_ASOS",
      "timezone": "America/New_York"
    },
    {
      "station_id": "GCRR",
      "latitude": 28.95194,
      "longitude": -13.60028,
      "elevation": 40.0,
      "station_name": "Arrecife",
      "station_network": "ES__ASOS",
      "timezone": "Europe/Lisbon"
    },
    {
      "station_id": "ATS",
      "latitude": 32.85253,
      "longitude": -104.46769,
      "elevation": 1081.0,
      "station_name": "ARTESIA",
      "station_network": "NM_ASOS",
      "timezone": "America/Denver"
    },
    {
      "station_id": "HTAR",
      "latitude": -3.33333,
      "longitude": 36.61667,
      "elevation": 1387.0,
      "station_name": "Arusha",
      "station_network": "TZ__ASOS",
      "timezone": "Asia/Riyadh"
    },
    {
      "station_id": "CYEK",
      "latitude": 61.09417,
      "longitude": -94.07083,
      "elevation": 10.0,
      "station_name": "ARVIAT",
      "station_network": "CA_NU_ASOS",
      "timezone": "America/Chicago"
    },
    {
      "station_id": "ESNX",
      "latitude": 65.59028,
      "longitude": 19.28194,
      "elevation": 379.0,
      "station_name": "Arvidsjaur",
      "station_network": "SE__ASOS",
      "timezone": "Europe/Paris"
    },
    {
      "station_id": "RJEC",
      "latitude": 43.67083,
      "longitude": 142.4475,
      "elevation": 211.0,
      "station_name": "Asahikawa",
      "station_network": "JP__ASOS",
      "timezone": "Asia/Tokyo"
    },
    {
      "station_id": "RJCA",
      "latitude": 43.79444,
      "longitude": 142.365,
      "elevation": 118.0,
      "station_name": "ASAHIKAWA",
      "station_network": "JP__ASOS",
      "timezone": "Asia/Tokyo"
    },
    {
      "station_id": "HBI",
      "latitude": 35.65453,
      "longitude": -79.89475,
      "elevation": 205.0,
      "station_name": "ASHEBORO_MUNI_ARPT",
      "station_network": "NC_ASOS",
      "timezone": "America/New_York"
    },
    {
      "station_id": "GEV",
      "latitude": 36.43,
      "longitude": -81.42,
      "elevation": 969.0,
      "station_name": "ASHE_COUNTY_ARPT",
      "station_network": "NC_ASOS",
      "timezone": "America/New_York"
    },
    {
      "station_id": "AVL",
      "latitude": 35.43194,
      "longitude": -82.5375,
      "elevation": 661.0,
      "station_name": "ASHEVILLE_MUNICIPAL_(ASOS)",
      "station_network": "NC_ASOS",
      "timezone": "America/New_York"
    },
    {
      "station_id": "UTAA",
      "latitude": 37.9868,
      "longitude": 58.361,
      "elevation": 210.0,
      "station_name": "Ashkhabad",
      "station_network": "TM__ASOS",
      "timezone": "Asia/Tashkent"
    },
    {
      "station_id": "DWU",
      "latitude": 38.5545,
      "longitude": -82.738,
      "elevation": 165.28073,
      "station_name": "Ashland",
      "station_network": "KY_ASOS",
      "timezone": "America/New_York"
    },
    {
      "station_id": "ASX",
      "latitude": 46.54867,
      "longitude": -90.91893,
      "elevation": 249.22482,
      "station_name": "Ashland",
      "station_network": "WI_ASOS",
      "timezone": "America/Chicago"
    },
    {
      "station_id": "HZY",
      "latitude": 41.77797,
      "longitude": -80.69551,
      "elevation": 276.0,
      "station_name": "ASHTABULA",
      "station_network": "OH_ASOS",
      "timezone": "America/New_York"
    },
    {
      "station_id": "GRB",
      "latitude": 44.4794,
      "longitude": -88.1367,
      "elevation": 208.0,
      "station_name": "Ashwaubenon",
      "station_network": "WI_ASOS",
      "timezone": "America/Chicago"
    },
    {
      "station_id": "ASE",
      "latitude": 39.22317,
      "longitude": -106.86886,
      "elevation": 2382.0,
      "station_name": "ASPEN/SARDY FIELD",
      "station_network": "CO_ASOS",
      "timezone": "America/Denver"
    },
    {
      "station_id": "CWJI",
      "latitude": 49.72917,
      "longitude": -105.94611,
      "elevation": 724.0,
      "station_name": "ASSINIBOIA AIRPORT  SASK",
      "station_network": "CA_SK_ASOS",
      "timezone": "America/Chicago"
    },
    {
      "station_id": "AST",
      "latitude": 46.1569,
      "longitude": -123.8825,
      "elevation": 7.0,
      "station_name": "ASTORIA/CLATSOP",
      "station_network": "OR_ASOS",
      "timezone": "America/Los_Angeles"
    },
    {
      "station_id": "URWA",
      "latitude": 46.2856,
      "longitude": 47.99513,
      "elevation": -20.0,
      "station_name": "Astrakhan",
      "station_network": "RU__ASOS",
      "timezone": "Europe/Moscow"
    },
    {
      "station_id": "SGAS",
      "latitude": -25.26667,
      "longitude": -57.63333,
      "elevation": 101.0,
      "station_name": "Asuncion",
      "station_network": "PY__ASOS",
      "timezone": "America/La_Paz"
    },
    {
      "station_id": "HESN",
      "latitude": 23.96444,
      "longitude": 32.82,
      "elevation": 194.0,
      "station_name": "Aswan",
      "station_network": "EG__ASOS",
      "timezone": "Europe/Mariehamn"
    },
    {
      "station_id": "HEAT",
      "latitude": 27.03806,
      "longitude": 31.01194,
      "elevation": 70.0,
      "station_name": "Asyut",
      "station_network": "EG__ASOS",
      "timezone": "Europe/Mariehamn"
    },
    {
      "station_id": "SPAY",
      "latitude": -10.72912,
      "longitude": -73.7665,
      "elevation": 451.0,
      "station_name": "Atalaya",
      "station_network": "PE__ASOS",
      "timezone": "America/New_York"
    },
    {
      "station_id": "OYAT",
      "latitude": 14.51667,
      "longitude": 46.85,
      "elevation": 1039.0,
      "station_name": "Ataq",
      "station_network": "YE__ASOS",
      "timezone": "Asia/Riyadh"
    },
    {
      "station_id": "GQPA",
      "latitude": 20.5167,
      "longitude": -13.0667,
      "elevation": 222.70982,
      "station_name": "Atar",
      "station_network": "MR__ASOS",
      "timezone": "Europe/Lisbon"
    },
    {
      "station_id": "F44",
      "latitude": 32.16385,
      "longitude": -95.82835,
      "elevation": 135.39607,
      "station_name": "Athens",
      "station_network": "TX_ASOS",
      "timezone": "America/Chicago"
    },
    {
      "station_id": "LGAV",
      "latitude": 37.9364,
      "longitude": 23.9445,
      "elevation": 94.0,
      "station_name": "Athens",
      "station_network": "GR__ASOS",
      "timezone": "Europe/Mariehamn"
    },
    {
      "station_id": "MMI",
      "latitude": 35.3973,
      "longitude": -84.5626,
      "elevation": 245.04639,
      "station_name": "Athens",
      "station_network": "TN_ASOS",
      "timezone": "America/New_York"
    },
    {
      "station_id": "AHN",
      "latitude": 33.9486,
      "longitude": -83.32635,
      "elevation": 247.0,
      "station_name": "ATHENS MUNICIPAL",
      "station_network": "GA_ASOS",
      "timezone": "America/New_York"
    },
    {
      "station_id": "NCAT",
      "latitude": -19.9678,
      "longitude": -158.119,
      "elevation": 16.526054,
      "station_name": "Atiu Island",
      "station_network": "CK__ASOS",
      "timezone": "Pacific/Honolulu"
    },
    {
      "station_id": "PAAK",
      "latitude": 52.22059,
      "longitude": -174.20618,
      "elevation": 17.0,
      "station_name": "ATKA AIRPORT",
      "station_network": "AK_ASOS",
      "timezone": "Pacific/Honolulu"
    },
    {
      "station_id": "ATA",
      "latitude": 33.1018,
      "longitude": -94.1953,
      "elevation": 81.0,
      "station_name": "Atlanta",
      "station_network": "TX_ASOS",
      "timezone": "America/Chicago"
    },
    {
      "station_id": "PDK",
      "latitude": 33.87561,
      "longitude": -84.30197,
      "elevation": 305.0,
      "station_name": "ATLANTA/DEKALB",
      "station_network": "GA_ASOS",
      "timezone": "America/New_York"
    },
    {
      "station_id": "FTY",
      "latitude": 33.78,
      "longitude": -84.52,
      "elevation": 256.0,
      "station_name": "ATLANTA/FULTON CO.",
      "station_network": "GA_ASOS",
      "timezone": "America/New_York"
    },
    {
      "station_id": "ATL",
      "latitude": 33.6301,
      "longitude": -84.4418,
      "elevation": 315.0,
      "station_name": "ATLANTA INTL ARPT",
      "station_network": "GA_ASOS",
      "timezone": "America/New_York"
    },
    {
      "station_id": "AIO",
      "latitude": 41.40588,
      "longitude": -95.04653,
      "elevation": 351.7,
      "station_name": "ATLANTIC",
      "station_network": "IA_ASOS",
      "timezone": "America/Chicago"
    },
    {
      "station_id": "ACY",
      "latitude": 39.45758,
      "longitude": -74.57717,
      "elevation": 20.0,
      "station_name": "ATLANTIC CITY INTL",
      "station_network": "NJ_ASOS",
      "timezone": "America/New_York"
    },
    {
      "station_id": "ATP",
      "latitude": 27.1956,
      "longitude": -90.0269,
      "elevation": 0.0,
      "station_name": "Atlantis",
      "station_network": "LA_ASOS",
      "timezone": "America/Chicago"
    },
    {
      "station_id": "CXAJ",
      "latitude": 54.78167,
      "longitude": -112.825,
      "elevation": 574.0,
      "station_name": "ATMORE AGDM  ALTA",
      "station_network": "CA_AB_ASOS",
      "timezone": "America/Denver"
    },
    {
      "station_id": "PATQ",
      "latitude": 70.46728,
      "longitude": -157.43574,
      "elevation": 29.0,
      "station_name": "ATQASUK",
      "station_network": "AK_ASOS",
      "timezone": "America/Anchorage"
    },
    {
      "station_id": "CYAT",
      "latitude": 52.9275,
      "longitude": -82.4319,
      "elevation": 5.4982204,
      "station_name": "Attawapiskat",
      "station_network": "CA_ON_ASOS",
      "timezone": "America/New_York"
    },
    {
      "station_id": "ADT",
      "latitude": 39.8401,
      "longitude": -101.042,
      "elevation": 904.0397,
      "station_name": "Atwood",
      "station_network": "KS_ASOS",
      "timezone": "America/Chicago"
    },
    {
      "station_id": "UATG",
      "latitude": 47.12188,
      "longitude": 51.82886,
      "elevation": -22.0,
      "station_name": "Atyrau",
      "station_network": "KZ__ASOS",
      "timezone": "Asia/Tashkent"
    },
    {
      "station_id": "GWB",
      "latitude": 41.30717,
      "longitude": -85.06436,
      "elevation": 268.2,
      "station_name": "Auburn",
      "station_network": "IN_ASOS",
      "timezone": "America/New_York"
    },
    {
      "station_id": "LEW",
      "latitude": 44.04847,
      "longitude": -70.28351,
      "elevation": 88.0,
      "station_name": "AUBURN-LEWISTON",
      "station_network": "ME_ASOS",
      "timezone": "America/New_York"
    },
    {
      "station_id": "AUO",
      "latitude": 32.61511,
      "longitude": -85.434,
      "elevation": 236.0,
      "station_name": "AUBURN-OPELIKA APT",
      "station_network": "AL_ASOS",
      "timezone": "America/Chicago"
    },
    {
      "station_id": "LFDH",
      "latitude": 43.69056,
      "longitude": 0.60139,
      "elevation": 128.0,
      "station_name": "Auch",
      "station_network": "FR__ASOS",
      "timezone": "Europe/Paris"
    },
    {
      "station_id": "NZAA",
      "latitude": -37.0081,
      "longitude": 174.7917,
      "elevation": 7.0,
      "station_name": "Auckland",
      "station_network": "NF__ASOS",
      "timezone": "Pacific/Auckland"
    },
    {
      "station_id": "ADU",
      "latitude": 41.69935,
      "longitude": -94.92044,
      "elevation": 399.3,
      "station_name": "AUDUBON",
      "station_network": "IA_ASOS",
      "timezone": "America/Chicago"
    },
    {
      "station_id": "EDMA",
      "latitude": 48.42611,
      "longitude": 10.94306,
      "elevation": 463.0,
      "station_name": "Augsburg",
      "station_network": "DE__ASOS",
      "timezone": "Europe/Paris"
    },
    {
      "station_id": "DNL",
      "latitude": 33.46682,
      "longitude": -82.03848,
      "elevation": 125.0,
      "station_name": "Augusta",
      "station_network": "GA_ASOS",
      "timezone": "America/New_York"
    },
    {
      "station_id": "3AU",
      "latitude": 37.6716,
      "longitude": -97.0779,
      "elevation": 405.83893,
      "station_name": "Augusta",
      "station_network": "KS_ASOS",
      "timezone": "America/Chicago"
    },
    {
      "station_id": "AGS",
      "latitude": 33.36994,
      "longitude": -81.9645,
      "elevation": 45.0,
      "station_name": "AUGUSTA/BUSH FIELD",
      "station_network": "GA_ASOS",
      "timezone": "America/New_York"
    },
    {
      "station_id": "AUG",
      "latitude": 44.32,
      "longitude": -69.8,
      "elevation": 107.0,
      "station_name": "AUGUSTA STATE ARPT",
      "station_network": "ME_ASOS",
      "timezone": "America/New_York"
    },
    {
      "station_id": "CYLA",
      "latitude": 59.29667,
      "longitude": -69.59972,
      "elevation": 35.0,
      "station_name": "AUPALUKA",
      "station_network": "CA_QC_ASOS",
      "timezone": "America/New_York"
    },
    {
      "station_id": "VAAU",
      "latitude": 19.8627,
      "longitude": 75.3981,
      "elevation": 578.3111,
      "station_name": "Aurangabad",
      "station_network": "IN__ASOS",
      "timezone": "Asia/Kolkata"
    },
    {
      "station_id": "AUN",
      "latitude": 38.95481,
      "longitude": -121.08172,
      "elevation": 467.0,
      "station_name": "AURBURN MUNICIPAL AIRPORT",
      "station_network": "CA_ASOS",
      "timezone": "America/Los_Angeles"
    },
    {
      "station_id": "LFLW",
      "latitude": 44.89861,
      "longitude": 2.42111,
      "elevation": 639.0,
      "station_name": "Aurillac",
      "station_network": "FR__ASOS",
      "timezone": "Europe/Paris"
    },
    {
      "station_id": "AUH",
      "latitude": 40.89414,
      "longitude": -97.99456,
      "elevation": 546.414,
      "station_name": "AURORA",
      "station_network": "NE_ASOS",
      "timezone": "America/Chicago"
    },
    {
      "station_id": "UAO",
      "latitude": 45.25,
      "longitude": -122.77,
      "elevation": 60.0,
      "station_name": "AURORA STATE",
      "station_network": "OR_ASOS",
      "timezone": "America/Los_Angeles"
    },
    {
      "station_id": "TMT",
      "latitude": 39.4643,
      "longitude": -117.1971,
      "elevation": 1749.3367,
      "station_name": "Austin",
      "station_network": "NV_ASOS",
      "timezone": "America/Los_Angeles"
    },
    {
      "station_id": "EDC",
      "latitude": 30.39255,
      "longitude": -97.56213,
      "elevation": 187.5,
      "station_name": "Austin",
      "station_network": "TX_ASOS",
      "timezone": "America/Chicago"
    },
    {
      "station_id": "BSM",
      "latitude": 30.1945,
      "longitude": -97.6699,
      "elevation": 148.70668,
      "station_name": "Austin - Bergstrom AFB (BSM)",
      "station_network": "TX_ASOS",
      "timezone": "America/Chicago"
    },
    {
      "station_id": "AUS",
      "latitude": 30.18304,
      "longitude": -97.67987,
      "elevation": 146.0,
      "station_name": "Austin Bergstrom Intl",
      "station_network": "TX_ASOS",
      "timezone": "America/Chicago"
    },
    {
      "station_id": "ATT",
      "latitude": 30.32081,
      "longitude": -97.76042,
      "elevation": 203.0,
      "station_name": "Austin - City/Camp Mabry",
      "station_network": "TX_ASOS",
      "timezone": "America/Chicago"
    },
    {
      "station_id": "AUM",
      "latitude": 43.66472,
      "longitude": -92.93333,
      "elevation": 375.0,
      "station_name": "AUSTIN MUNI",
      "station_network": "MN_ASOS",
      "timezone": "America/Chicago"
    },
    {
      "station_id": "YMAV",
      "latitude": -38.0287,
      "longitude": 144.4783,
      "elevation": 8.0,
      "station_name": "Avalon",
      "station_network": "AU__ASOS",
      "timezone": "Australia/Sydney"
    },
    {
      "station_id": "AVX",
      "latitude": 33.405,
      "longitude": -118.41583,
      "elevation": 488.0,
      "station_name": "AVALON/CATALINA",
      "station_network": "CA_ASOS",
      "timezone": "America/Los_Angeles"
    },
    {
      "station_id": "NCRG",
      "latitude": -21.2,
      "longitude": -159.81667,
      "elevation": 7.0,
      "station_name": "Avarua",
      "station_network": "CK__ASOS",
      "timezone": "Pacific/Honolulu"
    },
    {
      "station_id": "LIPA",
      "latitude": 46.02861,
      "longitude": 12.60333,
      "elevation": 126.0,
      "station_name": "Aviano",
      "station_network": "IT__ASOS",
      "timezone": "Europe/Paris"
    },
    {
      "station_id": "LFMV",
      "latitude": 43.9073,
      "longitude": 4.90183,
      "elevation": 38.0,
      "station_name": "Avignon",
      "station_network": "FR__ASOS",
      "timezone": "Europe/Paris"
    },
    {
      "station_id": "LEAS",
      "latitude": 43.56694,
      "longitude": -6.04417,
      "elevation": 134.0,
      "station_name": "Aviles",
      "station_network": "ES__ASOS",
      "timezone": "Europe/Paris"
    },
    {
      "station_id": "EKAV",
      "latitude": 55.08333,
      "longitude": 11.78333,
      "elevation": 4.0,
      "station_name": "AVNO AIR BASE",
      "station_network": "DK__ASOS",
      "timezone": "Europe/Paris"
    },
    {
      "station_id": "LFOA",
      "latitude": 47.05333,
      "longitude": 2.6325,
      "elevation": 179.0,
      "station_name": "Avord",
      "station_network": "FR__ASOS",
      "timezone": "Europe/Paris"
    },
    {
      "station_id": "EHMA",
      "latitude": 53.49167,
      "longitude": 5.94167,
      "elevation": 50.0,
      "station_name": "AWG-1",
      "station_network": "NL__ASOS",
      "timezone": "Europe/Paris"
    },
    {
      "station_id": "SPHO",
      "latitude": -13.15482,
      "longitude": -74.20442,
      "elevation": 2749.0,
      "station_name": "Ayacucho",
      "station_network": "PE__ASOS",
      "timezone": "America/New_York"
    },
    {
      "station_id": "LTBD",
      "latitude": 37.85,
      "longitude": 27.85,
      "elevation": 90.73857,
      "station_name": "Aydin",
      "station_network": "TR__ASOS",
      "timezone": "Europe/Mariehamn"
    },
    {
      "station_id": "VEAY",
      "latitude": 26.75333,
      "longitude": 82.15028,
      "elevation": 96.0,
      "station_name": "Ayodhya",
      "station_network": "PK__ASOS",
      "timezone": "Asia/Kolkata"
    },
    {
      "station_id": "PTRO",
      "latitude": 7.3673,
      "longitude": 134.54428,
      "elevation": 54.0,
      "station_name": "Babelthuap",
      "station_network": "FM__ASOS",
      "timezone": "Asia/Tokyo"
    },
    {
      "station_id": "OINB",
      "latitude": 36.71667,
      "longitude": 52.65,
      "elevation": -15.0,
      "station_name": "BABOLSAR",
      "station_network": "IR__ASOS",
      "timezone": "Asia/Tehran"
    },
    {
      "station_id": "LRBC",
      "latitude": 46.53194,
      "longitude": 26.9125,
      "elevation": 185.0,
      "station_name": "Bacau",
      "station_network": "RO__ASOS",
      "timezone": "Europe/Mariehamn"
    },
    {
      "station_id": "LEBZ",
      "latitude": 38.88333,
      "longitude": -6.82917,
      "elevation": 192.0,
      "station_name": "Badajoz",
      "station_network": "ES__ASOS",
      "timezone": "Europe/Paris"
    },
    {
      "station_id": "BAX",
      "latitude": 43.78022,
      "longitude": -82.98542,
      "elevation": 234.0,
      "station_name": "BAD AXE",
      "station_network": "MI_ASOS",
      "timezone": "America/New_York"
    },
    {
      "station_id": "LOAV",
      "latitude": 47.965,
      "longitude": 16.26055,
      "elevation": 233.0,
      "station_name": "Bad Voeslau",
      "station_network": "AT__ASOS",
      "timezone": "Europe/Paris"
    },
    {
      "station_id": "FKKU",
      "latitude": 5.5369,
      "longitude": 10.3546,
      "elevation": 1325.516,
      "station_name": "Bafoussam",
      "station_network": "CM__ASOS",
      "timezone": "Europe/Paris"
    },
    {
      "station_id": "SBBG",
      "latitude": -31.35,
      "longitude": -54.11667,
      "elevation": 180.0,
      "station_name": "Bage",
      "station_network": "BR__ASOS",
      "timezone": "America/Sao_Paulo"
    },
    {
      "station_id": "ORBI",
      "latitude": 33.2625,
      "longitude": 44.2346,
      "elevation": 35.0,
      "station_name": "Baghdad",
      "station_network": "IQ__ASOS",
      "timezone": "Asia/Riyadh"
    },
    {
      "station_id": "QTZ",
      "latitude": 33.25,
      "longitude": 44.21667,
      "elevation": 34.0,
      "station_name": "BAGHDAD     ORBI",
      "station_network": "IQ__ASOS",
      "timezone": "Asia/Riyadh"
    },
    {
      "station_id": "VEBD",
      "latitude": 26.63333,
      "longitude": 88.31667,
      "elevation": 126.0,
      "station_name": "Baghdogra",
      "station_network": "IN__ASOS",
      "timezone": "Asia/Kolkata"
    },
    {
      "station_id": "CYBG",
      "latitude": 48.33393,
      "longitude": -70.9869,
      "elevation": 159.0,
      "station_name": "BAGOTVILLE",
      "station_network": "CA_QC_ASOS",
      "timezone": "America/New_York"
    },
    {
      "station_id": "HABD",
      "latitude": 11.6027,
      "longitude": 37.3216,
      "elevation": 1828.425,
      "station_name": "Bahar Dar",
      "station_network": "ET__ASOS",
      "timezone": "Asia/Riyadh"
    },
    {
      "station_id": "SKBS",
      "latitude": 6.20292,
      "longitude": -77.39468,
      "elevation": 24.0,
      "station_name": "Bahia Solano",
      "station_network": "CO__ASOS",
      "timezone": "America/New_York"
    },
    {
      "station_id": "OBBI",
      "latitude": 26.27083,
      "longitude": 50.63361,
      "elevation": 2.0,
      "station_name": "Bahrain",
      "station_network": "BH__ASOS",
      "timezone": "Asia/Riyadh"
    },
    {
      "station_id": "LRBM",
      "latitude": 47.66083,
      "longitude": 23.49167,
      "elevation": 185.0,
      "station_name": "Baia Mare",
      "station_network": "RO__ASOS",
      "timezone": "Europe/Mariehamn"
    },
    {
      "station_id": "CYBC",
      "latitude": 49.1325,
      "longitude": -68.20444,
      "elevation": 22.0,
      "station_name": "BAIE COMEAU",
      "station_network": "CA_QC_ASOS",
      "timezone": "America/New_York"
    },
    {
      "station_id": "BGE",
      "latitude": 30.9716,
      "longitude": -84.63693,
      "elevation": 43.0,
      "station_name": "BAINBRIDGE/DECATUR COUNTY INDUS",
      "station_network": "GA_ASOS",
      "timezone": "America/New_York"
    },
    {
      "station_id": "BHK",
      "latitude": 46.34764,
      "longitude": -104.25945,
      "elevation": 906.0,
      "station_name": "BAKER",
      "station_network": "MT_ASOS",
      "timezone": "America/Denver"
    },
    {
      "station_id": "CYBK",
      "latitude": 64.29889,
      "longitude": -96.07778,
      "elevation": 18.0,
      "station_name": "BAKER LAKE",
      "station_network": "CA_NU_ASOS",
      "timezone": "America/Chicago"
    },
    {
      "station_id": "BKE",
      "latitude": 44.83735,
      "longitude": -117.80914,
      "elevation": 1027.0,
      "station_name": "BAKER MUNICIPAL",
      "station_network": "OR_ASOS",
      "timezone": "America/Los_Angeles"
    },
    {
      "station_id": "BFL",
      "latitude": 35.4344,
      "longitude": -119.0542,
      "elevation": 150.0,
      "station_name": "BAKERSFIELD/MEADOWS",
      "station_network": "CA_ASOS",
      "timezone": "America/Los_Angeles"
    },
    {
      "station_id": "OICC",
      "latitude": 34.34585,
      "longitude": 47.15813,
      "elevation": 1322.0,
      "station_name": "Bakhtaran",
      "station_network": "IR__ASOS",
      "timezone": "Asia/Tehran"
    },
    {
      "station_id": "UBBB",
      "latitude": 40.4675,
      "longitude": 50.04667,
      "elevation": -6.0,
      "station_name": "Baku",
      "station_network": "AZ__ASOS",
      "timezone": "Europe/Moscow"
    },
    {
      "station_id": "LBWB",
      "latitude": 43.4238,
      "longitude": 28.1813,
      "elevation": 185.05777,
      "station_name": "Balchik",
      "station_network": "BG__ASOS",
      "timezone": "Europe/Mariehamn"
    },
    {
      "station_id": "LTBF",
      "latitude": 39.6193,
      "longitude": 27.926,
      "elevation": 95.8952,
      "station_name": "Balikesir",
      "station_network": "TR__ASOS",
      "timezone": "Europe/Mariehamn"
    },
    {
      "station_id": "LTFD",
      "latitude": 39.55459,
      "longitude": 27.01383,
      "elevation": 16.0,
      "station_name": "Balikesir Korfez",
      "station_network": "TR__ASOS",
      "timezone": "Europe/Mariehamn"
    },
    {
      "station_id": "WALL",
      "latitude": -1.26827,
      "longitude": 116.89448,
      "elevation": 3.0,
      "station_name": "Balikpapan",
      "station_network": "ID__ASOS",
      "timezone": "Australia/Perth"
    },
    {
      "station_id": "UAAH",
      "latitude": 46.8933,
      "longitude": 75.005,
      "elevation": 428.54208,
      "station_name": "Balkhash",
      "station_network": "KZ__ASOS",
      "timezone": "Asia/Almaty"
    },
    {
      "station_id": "CWGB",
      "latitude": 49.35011,
      "longitude": -124.15967,
      "elevation": 5.0,
      "station_name": "BALLENAS ISLAND  BC",
      "station_network": "CA_BC_ASOS",
      "timezone": "America/Los_Angeles"
    },
    {
      "station_id": "SCBA",
      "latitude": -45.91306,
      "longitude": -71.69389,
      "elevation": 524.0,
      "station_name": "Balmaceda",
      "station_network": "CL__ASOS",
      "timezone": "America/La_Paz"
    },
    {
      "station_id": "DMH",
      "latitude": 39.28,
      "longitude": -76.61,
      "elevation": 6.0,
      "station_name": "BALTIMORE INNER HARBOR",
      "station_network": "MD_ASOS",
      "timezone": "America/New_York"
    },
    {
      "station_id": "MTN",
      "latitude": 39.32567,
      "longitude": -76.41378,
      "elevation": 7.0,
      "station_name": "BALTIMORE/MARTIN",
      "station_network": "MD_ASOS",
      "timezone": "America/New_York"
    },
    {
      "station_id": "BWI",
      "latitude": 39.17332,
      "longitude": -76.68414,
      "elevation": 42.0,
      "station_name": "Baltimore - Wash Intl",
      "station_network": "MD_ASOS",
      "timezone": "America/New_York"
    },
    {
      "station_id": "OIKM",
      "latitude": 29.08417,
      "longitude": 58.45004,
      "elevation": 969.719,
      "station_name": "Bam",
      "station_network": "IR__ASOS",
      "timezone": "Asia/Tehran"
    },
    {
      "station_id": "GABS",
      "latitude": 12.53333,
      "longitude": -7.95,
      "elevation": 381.0,
      "station_name": "Bamako",
      "station_network": "ML__ASOS",
      "timezone": "Europe/Lisbon"
    },
    {
      "station_id": "CWRK",
      "latitude": 45.07139,
      "longitude": -77.87889,
      "elevation": 331.0,
      "station_name": "BANCROFT AUTO  ONT",
      "station_network": "CA_ON_ASOS",
      "timezone": "America/New_York"
    },
    {
      "station_id": "OIKB",
      "latitude": 27.21832,
      "longitude": 56.37785,
      "elevation": 10.0,
      "station_name": "Bandar Abbas",
      "station_network": "IR__ASOS",
      "timezone": "Asia/Tehran"
    },
    {
      "station_id": "OIBL",
      "latitude": 26.532,
      "longitude": 54.82485,
      "elevation": 14.0,
      "station_name": "Bandar Lengeh",
      "station_network": "IR__ASOS",
      "timezone": "Asia/Tehran"
    },
    {
      "station_id": "OIAM",
      "latitude": 30.55619,
      "longitude": 49.15188,
      "elevation": 4.0,
      "station_name": "Bandar Mahshahr",
      "station_network": "IR__ASOS",
      "timezone": "Asia/Tehran"
    },
    {
      "station_id": "WBSB",
      "latitude": 4.9442,
      "longitude": 114.92835,
      "elevation": 15.0,
      "station_name": "Bandar Seri Begawan",
      "station_network": "MY__ASOS",
      "timezone": "Australia/Perth"
    },
    {
      "station_id": "LTBG",
      "latitude": 40.318,
      "longitude": 27.9777,
      "elevation": 40.097614,
      "station_name": "Bandirma",
      "station_network": "TR__ASOS",
      "timezone": "Europe/Mariehamn"
    },
    {
      "station_id": "CWZG",
      "latitude": 51.19333,
      "longitude": -115.55222,
      "elevation": 1397.0,
      "station_name": "BANFF CS",
      "station_network": "CA_AB_ASOS",
      "timezone": "America/Denver"
    },
    {
      "station_id": "VOBG",
      "latitude": 12.94902,
      "longitude": 77.66304,
      "elevation": 897.0,
      "station_name": "Bangalore",
      "station_network": "IN__ASOS",
      "timezone": "Asia/Kolkata"
    },
    {
      "station_id": "VOBL",
      "latitude": 13.1979,
      "longitude": 77.7063,
      "elevation": 915.0,
      "station_name": "Bangalore",
      "station_network": "IN__ASOS",
      "timezone": "Asia/Kolkata"
    },
    {
      "station_id": "VTBD",
      "latitude": 13.91917,
      "longitude": 100.605,
      "elevation": 3.0,
      "station_name": "Bangkok",
      "station_network": "TH__ASOS",
      "timezone": "Asia/Jakarta"
    },
    {
      "station_id": "VTBS",
      "latitude": 13.35528,
      "longitude": 100.98194,
      "elevation": 2.0,
      "station_name": "Bangkok",
      "station_network": "TH__ASOS",
      "timezone": "Asia/Jakarta"
    },
    {
      "station_id": "BGR",
      "latitude": 44.80744,
      "longitude": -68.82814,
      "elevation": 59.0,
      "station_name": "BANGOR INTL ARPT",
      "station_network": "ME_ASOS",
      "timezone": "America/New_York"
    },
    {
      "station_id": "QEJ",
      "latitude": 38.2,
      "longitude": 127.95,
      "elevation": 221.0,
      "station_name": "BANGSAN TMQ-53P",
      "station_network": "KR__ASOS",
      "timezone": "Asia/Tokyo"
    },
    {
      "station_id": "FEFF",
      "latitude": 4.4,
      "longitude": 18.51667,
      "elevation": 366.0,
      "station_name": "Bangui",
      "station_network": "CF__ASOS",
      "timezone": "Europe/Paris"
    },
    {
      "station_id": "LQBK",
      "latitude": 44.7833,
      "longitude": 17.2167,
      "elevation": 152.14534,
      "station_name": "Banja Luka",
      "station_network": "BA__ASOS",
      "timezone": "Europe/Paris"
    },
    {
      "station_id": "WAOO",
      "latitude": -3.44236,
      "longitude": 114.76255,
      "elevation": 20.0,
      "station_name": "Banjarmasin",
      "station_network": "ID__ASOS",
      "timezone": "Australia/Perth"
    },
    {
      "station_id": "GBYD",
      "latitude": 13.2,
      "longitude": -16.63333,
      "elevation": 36.0,
      "station_name": "Banjul",
      "station_network": "GM__ASOS",
      "timezone": "Europe/Lisbon"
    },
    {
      "station_id": "MUBA",
      "latitude": 20.3653,
      "longitude": -74.5062,
      "elevation": 11.0,
      "station_name": "Baracoa",
      "station_network": "CU__ASOS",
      "timezone": "America/New_York"
    },
    {
      "station_id": "MUPB",
      "latitude": 23.0328,
      "longitude": -82.5794,
      "elevation": 18.0,
      "station_name": "Baracoa Playa",
      "station_network": "CU__ASOS",
      "timezone": "America/New_York"
    },
    {
      "station_id": "MDBH",
      "latitude": 18.2517,
      "longitude": -71.1204,
      "elevation": 3.4254045,
      "station_name": "Barahona",
      "station_network": "DO__ASOS",
      "timezone": "America/La_Paz"
    },
    {
      "station_id": "SBBQ",
      "latitude": -21.25,
      "longitude": -43.76667,
      "elevation": 1171.0,
      "station_name": "Barbacena",
      "station_network": "BR__ASOS",
      "timezone": "America/Sao_Paulo"
    },
    {
      "station_id": "LEBL",
      "latitude": 41.29278,
      "longitude": 2.07,
      "elevation": 6.0,
      "station_name": "Barcelona",
      "station_network": "ES__ASOS",
      "timezone": "Europe/Paris"
    },
    {
      "station_id": "SVBC",
      "latitude": 10.10714,
      "longitude": -64.68916,
      "elevation": 7.0,
      "station_name": "Barcelona",
      "station_network": "VE__ASOS",
      "timezone": "America/Caracas"
    },
    {
      "station_id": "LEBR",
      "latitude": 42.2,
      "longitude": -1.43,
      "elevation": 345.0,
      "station_name": "Bardenas Reales",
      "station_network": "ES__ASOS",
      "timezone": "Europe/Paris"
    },
    {
      "station_id": "BRY",
      "latitude": 37.8143,
      "longitude": -85.4996,
      "elevation": 194.3097,
      "station_name": "Bardstown - Samuels Field",
      "station_network": "KY_ASOS",
      "timezone": "America/New_York"
    },
    {
      "station_id": "ENDU",
      "latitude": 69.05889,
      "longitude": 18.54,
      "elevation": 79.0,
      "station_name": "Bardufoss",
      "station_network": "NO__ASOS",
      "timezone": "Europe/Paris"
    },
    {
      "station_id": "VIBY",
      "latitude": 28.3667,
      "longitude": 79.4,
      "elevation": 173.0,
      "station_name": "Bareilly",
      "station_network": "IN__ASOS",
      "timezone": "Asia/Kolkata"
    },
    {
      "station_id": "BHB",
      "latitude": 44.4496,
      "longitude": -68.36129,
      "elevation": 24.0,
      "station_name": "Bar Habor",
      "station_network": "ME_ASOS",
      "timezone": "America/New_York"
    },
    {
      "station_id": "LIBD",
      "latitude": 41.13806,
      "longitude": 16.765,
      "elevation": 44.0,
      "station_name": "Bari",
      "station_network": "IT__ASOS",
      "timezone": "Europe/Paris"
    },
    {
      "station_id": "SVBI",
      "latitude": 8.61957,
      "longitude": -70.22083,
      "elevation": 204.0,
      "station_name": "Barinas",
      "station_network": "VE__ASOS",
      "timezone": "America/Caracas"
    },
    {
      "station_id": "BAD",
      "latitude": 32.50193,
      "longitude": -93.66263,
      "elevation": 51.0,
      "station_name": "BARKSDALE AFB",
      "station_network": "LA_ASOS",
      "timezone": "America/Chicago"
    },
    {
      "station_id": "EGYE",
      "latitude": 52.96222,
      "longitude": -0.56163,
      "elevation": 112.0,
      "station_name": "Barkston Heath",
      "station_network": "GB__ASOS",
      "timezone": "Europe/London"
    },
    {
      "station_id": "UNBB",
      "latitude": 53.43333,
      "longitude": 83.51667,
      "elevation": 255.0,
      "station_name": "Barnaul",
      "station_network": "RU__ASOS",
      "timezone": "Asia/Omsk"
    },
    {
      "station_id": "BNL",
      "latitude": 33.25778,
      "longitude": -81.38833,
      "elevation": 75.0,
      "station_name": "Barnwell",
      "station_network": "SC_ASOS",
      "timezone": "America/New_York"
    },
    {
      "station_id": "VABO",
      "latitude": 22.3333,
      "longitude": 73.2667,
      "elevation": 44.700043,
      "station_name": "Baroda",
      "station_network": "IN__ASOS",
      "timezone": "Asia/Kolkata"
    },
    {
      "station_id": "SVBM",
      "latitude": 10.06667,
      "longitude": -69.31667,
      "elevation": 614.0,
      "station_name": "Barquisimeto",
      "station_network": "VE__ASOS",
      "timezone": "America/Caracas"
    },
    {
      "station_id": "SBBW",
      "latitude": -15.86134,
      "longitude": -52.38889,
      "elevation": 350.0,
      "station_name": "Barra Do Garcas",
      "station_network": "BR__ASOS",
      "timezone": "America/La_Paz"
    },
    {
      "station_id": "CWBA",
      "latitude": 46.70972,
      "longitude": -79.10111,
      "elevation": 181.0,
      "station_name": "BARRAGE TEMISCAMINGUE",
      "station_network": "CA_QC_ASOS",
      "timezone": "America/New_York"
    },
    {
      "station_id": "SKEJ",
      "latitude": 7.02433,
      "longitude": -73.8068,
      "elevation": 134.0,
      "station_name": "Barrancabermeja",
      "station_network": "CO__ASOS",
      "timezone": "America/New_York"
    },
    {
      "station_id": "SKBQ",
      "latitude": 10.88959,
      "longitude": -74.78082,
      "elevation": 10.0,
      "station_name": "Barranquilla",
      "station_network": "CO__ASOS",
      "timezone": "America/New_York"
    },
    {
      "station_id": "MPV",
      "latitude": 44.2035,
      "longitude": -72.56233,
      "elevation": 355.0,
      "station_name": "BARRE-MONTPELIER",
      "station_network": "VT_ASOS",
      "timezone": "America/New_York"
    },
    {
      "station_id": "CXBI",
      "latitude": 44.48449,
      "longitude": -79.54666,
      "elevation": 289.0,
      "station_name": "BARRIE-ORO",
      "station_network": "CA_ON_ASOS",
      "timezone": "America/New_York"
    },
    {
      "station_id": "PABR",
      "latitude": 71.28257,
      "longitude": -156.79224,
      "elevation": 4.0,
      "station_name": "BARROW/POST-ROGERS (ASOS)",
      "station_network": "AK_ASOS",
      "timezone": "America/Anchorage"
    },
    {
      "station_id": "DAG",
      "latitude": 34.85361,
      "longitude": -116.78583,
      "elevation": 587.0,
      "station_name": "BARSTOW-DAGGETT",
      "station_network": "CA_ASOS",
      "timezone": "America/Los_Angeles"
    },
    {
      "station_id": "PABA",
      "latitude": 70.13399,
      "longitude": -143.58187,
      "elevation": 2.0,
      "station_name": "BARTER ISLAND(AWOS)",
      "station_network": "AK_ASOS",
      "timezone": "America/Anchorage"
    },
    {
      "station_id": "BVO",
      "latitude": 36.76248,
      "longitude": -96.01115,
      "elevation": 218.0,
      "station_name": "BARTLESVILLE/PHILLI",
      "station_network": "OK_ASOS",
      "timezone": "America/Chicago"
    },
    {
      "station_id": "BOW",
      "latitude": 27.94336,
      "longitude": -81.78342,
      "elevation": 38.1,
      "station_name": "Bartow",
      "station_network": "FL_ASOS",
      "timezone": "America/New_York"
    },
    {
      "station_id": "ORMM",
      "latitude": 30.51667,
      "longitude": 47.78333,
      "elevation": 2.0,
      "station_name": "Basrah",
      "station_network": "IQ__ASOS",
      "timezone": "Asia/Riyadh"
    },
    {
      "station_id": "TKPK",
      "latitude": 17.3,
      "longitude": -62.6833,
      "elevation": 5.0,
      "station_name": "Basse Terre",
      "station_network": "KN__ASOS",
      "timezone": "America/La_Paz"
    },
    {
      "station_id": "OIBH",
      "latitude": 29.84,
      "longitude": 50.2722,
      "elevation": 10.577978,
      "station_name": "Bastak",
      "station_network": "IR__ASOS",
      "timezone": "Asia/Tehran"
    },
    {
      "station_id": "LFKB",
      "latitude": 42.54056,
      "longitude": 9.48528,
      "elevation": 12.0,
      "station_name": "Bastia",
      "station_network": "FR__ASOS",
      "timezone": "Europe/Paris"
    },
    {
      "station_id": "BQP",
      "latitude": 32.75608,
      "longitude": -91.88057,
      "elevation": 50.9,
      "station_name": "Bastrop",
      "station_network": "LA_ASOS",
      "timezone": "America/Chicago"
    },
    {
      "station_id": "FGBT",
      "latitude": 1.90547,
      "longitude": 9.80568,
      "elevation": 8.0,
      "station_name": "Bata",
      "station_network": "GQ__ASOS",
      "timezone": "Europe/Paris"
    },
    {
      "station_id": "LYBT",
      "latitude": 44.93533,
      "longitude": 20.25751,
      "elevation": 80.0,
      "station_name": "Batajnica",
      "station_network": "RS__ASOS",
      "timezone": "Europe/Paris"
    },
    {
      "station_id": "WIDD",
      "latitude": 1.12103,
      "longitude": 104.11875,
      "elevation": 38.0,
      "station_name": "Batam",
      "station_network": "ID__ASOS",
      "timezone": "Asia/Jakarta"
    },
    {
      "station_id": "GVQ",
      "latitude": 43.0317,
      "longitude": -78.1675,
      "elevation": 275.45084,
      "station_name": "Batavia",
      "station_network": "NY_ASOS",
      "timezone": "America/New_York"
    },
    {
      "station_id": "I69",
      "latitude": 39.0784,
      "longitude": -84.2102,
      "elevation": 252.27235,
      "station_name": "Batavia",
      "station_network": "OH_ASOS",
      "timezone": "America/New_York"
    },
    {
      "station_id": "HLB",
      "latitude": 39.3445,
      "longitude": -85.2583,
      "elevation": 296.38635,
      "station_name": "Batesville",
      "station_network": "IN_ASOS",
      "timezone": "America/New_York"
    },
    {
      "station_id": "PMU",
      "latitude": 34.3635,
      "longitude": -89.8929,
      "elevation": 65.71205,
      "station_name": "Batesville",
      "station_network": "MS_ASOS",
      "timezone": "America/Chicago"
    },